start month,station id,number of rides,ride duration,station name,latitude,longitude
April,72.0,4126,1197.1146388754241,W 52 St & 11 Ave,40.76727216,-73.99392888
April,79.0,2534,1100.9301499605367,Franklin St & W Broadway,40.71911552,-74.00666661
April,82.0,1086,797.3858195211786,St James Pl & Pearl St,40.71117416,-74.00016545
April,83.0,1315,891.612927756654,Atlantic Ave & Fort Greene Pl,40.68382604,-73.97632328
April,119.0,327,2488.4159021406726,Park Ave & St Edwards St,40.69608941,-73.97803415
April,120.0,1092,1063.8434065934066,Lexington Ave & Classon Ave,40.68676793,-73.95928168
April,127.0,5681,956.6572786481254,Barrow St & Hudson St,40.73172428,-74.00674436
April,128.0,5802,1026.317993795243,MacDougal St & Prince St,40.72710258,-74.00297088
April,143.0,2191,1392.0994979461434,Clinton St & Joralemon St,40.69239502,-73.99337909
April,144.0,966,3486.876811594203,Nassau St & Navy St,40.69839895,-73.98068914
April,146.0,2766,1195.469269703543,Hudson St & Reade St,40.71625008,-74.0091059
April,150.0,3273,1432.9773907729912,E 2 St & Avenue C,40.720873600000004,-73.98085795
April,151.0,7347,876.9661086157615,Cleveland Pl & Spring St,40.72210378668603,-73.99724900722505
April,157.0,1842,805.4956568946797,Henry St & Atlantic Ave,40.69089272,-73.99612349
April,161.0,5124,807.1299765807962,LaGuardia Pl & W 3 St,40.72917025,-73.99810231
April,164.0,3221,786.8938217944738,E 47 St & 2 Ave,40.75323098,-73.97032517
April,167.0,4645,781.843057050592,E 39 St & 3 Ave,40.7489006,-73.97604882
April,168.0,6147,841.105579957703,W 18 St & 6 Ave,40.73971301,-73.99456405
April,173.0,6330,909.8053712480253,Broadway & W 49 St,40.76068327096592,-73.98452728986742
April,174.0,3660,820.9284153005465,E 25 St & 1 Ave,40.7381765,-73.97738662
April,195.0,3881,953.5712445246071,Liberty St & Broadway,40.70905623,-74.01043382
April,212.0,5184,962.2519290123457,W 16 St & The High Line,40.74334935,-74.00681753
April,216.0,782,1069.0984654731458,Columbia Heights & Cranberry St,40.70037867,-73.99548059
April,217.0,3407,2484.3078955092456,Old Fulton St,40.70277159,-73.99383605
April,223.0,5240,811.6020992366413,W 13 St & 7 Ave,40.73781509,-73.99994661
April,224.0,2334,1142.1525278491858,Spruce St & Nassau St,40.71146364,-74.00552427
April,228.0,2577,907.5452076057431,E 48 St & 3 Ave,40.7546011026,-73.971878855
April,229.0,6904,672.3056199304751,Great Jones St,40.72743423,-73.99379025
April,236.0,5181,978.9023354564756,St Marks Pl & 2 Ave,40.7284186,-73.98713956
April,237.0,4592,827.1435104529617,E 11 St & 2 Ave,40.73047309,-73.98672378
April,238.0,3066,946.796803652968,Bank St & Washington St,40.7361967,-74.00859207
April,239.0,2497,1829.5218261914297,Willoughby St & Fleet St,40.69196566,-73.9813018
April,241.0,1567,1361.9380982769624,DeKalb Ave & S Portland Ave,40.68981035,-73.97493121
April,242.0,1012,1147.0158102766798,Carlton Ave & Flushing Ave,40.697787,-73.973736
April,243.0,1157,1375.331892826275,Fulton St & Rockwell Pl,40.688226,-73.979382
April,244.0,1765,762.7745042492918,Willoughby Ave & Hall St,40.69196035,-73.96536851
April,245.0,749,3260.7837116154874,Myrtle Ave & St Edwards St,40.69327018,-73.97703874
April,247.0,752,765.0864361702128,Perry St & Bleecker St,40.73535398,-74.00483091
April,248.0,1156,945.4515570934255,Laight St & Hudson St,40.72185379,-74.00771779
April,249.0,1813,977.9327082184225,Harrison St & Hudson St,40.71870987,-74.0090009
April,251.0,4841,873.6531708324726,Mott St & Prince St,40.72317958,-73.99480012
April,252.0,4462,929.0284625728373,MacDougal St & Washington Sq,40.73226398,-73.99852205
April,254.0,4139,675.9806716598213,W 11 St & 6 Ave,40.73532427,-73.99800419
April,257.0,4180,961.0677033492823,Lispenard St & Broadway,40.71939226,-74.00247214
April,258.0,1724,2686.9872389791185,DeKalb Ave & Vanderbilt Ave,40.68940747,-73.96885458
April,259.0,1964,1452.9607942973523,South St & Whitehall St,40.70122128,-74.01234218
April,260.0,753,1152.4621513944223,Broad St & Bridge St,40.70365182,-74.01167797
April,261.0,1375,2626.672,Johnson St & Gold St,40.69474881,-73.98362464
April,262.0,1210,1488.3148760330578,Washington Park,40.6917823,-73.97372990000001
April,264.0,2074,936.8823529411765,Maiden Ln & Pearl St,40.70706456,-74.00731853
April,265.0,4113,1605.0600534889375,Stanton St & Chrystie St,40.72229346,-73.99147535
April,266.0,1948,1789.9917864476386,Avenue D & E 8 St,40.72368361,-73.97574813
April,267.0,4063,813.9374846172778,Broadway & W 36 St,40.75097711,-73.98765428
April,268.0,3941,885.0365389495053,Howard St & Centre St,40.71910537,-73.99973337
April,270.0,1707,618.9191564147627,Adelphi St & Myrtle Ave,40.69308257,-73.97178913
April,274.0,1639,944.6680902989627,Lafayette Ave & Fort Greene Pl,40.68691865,-73.976682
April,275.0,1056,1869.8484848484848,Washington Ave & Greene Ave,40.68650065,-73.96563307
April,276.0,1831,747.8700163844893,Duane St & Greenwich St,40.71748752,-74.0104554
April,278.0,882,1432.831065759637,Concord St & Bridge St,40.69766564,-73.98476437
April,279.0,3128,1288.9414961636828,Peck Slip & Front St,40.707873,-74.00166999999999
April,280.0,3818,722.2302252488214,E 10 St & 5 Ave,40.73331967,-73.99510132
April,281.0,7333,1571.4227464884768,Grand Army Plaza & Central Park S,40.764397100000004,-73.97371465
April,282.0,2009,1121.5659532105526,Kent Ave & S 11 St,40.7076449441757,-73.96841526031494
April,284.0,73,660.7123287671233,Greenwich Ave & 8 Ave,40.7390169121,-74.0026376103
April,285.0,9450,816.6506878306878,Broadway & E 14 St,40.73454567,-73.99074142
April,289.0,779,991.1553273427471,Monroe St & Classon Ave,40.684568299999995,-73.95881081
April,291.0,1539,1286.2170240415855,Madison St & Montgomery St,40.713126,-73.984844
April,293.0,8180,775.442542787286,Lafayette St & E 8 St,40.73020660529954,-73.99102628231049
April,295.0,2568,1006.5798286604362,Pike St & E Broadway,40.71406667,-73.99293911
April,296.0,2715,1276.8364640883979,Division St & Bowery,40.71413089,-73.99704679999999
April,297.0,5333,760.9349334333396,E 15 St & 3 Ave,40.734232,-73.986923
April,298.0,1396,1089.2428366762178,3 Ave & Schermerhorn St,40.68683208,-73.9796772
April,301.0,4664,992.1764579759863,E 2 St & Avenue B,40.72217444,-73.98368779
April,302.0,2121,1784.022630834512,Avenue D & E 3 St,40.72082834,-73.97793172
April,303.0,4119,992.6236950716193,Mercer St & Spring St,40.72362738,-73.99949601
April,304.0,4582,1294.2291575731122,Broadway & Battery Pl,40.70463334,-74.01361706
April,305.0,3930,848.5987277353689,E 58 St & 3 Ave,40.76095756,-73.96724467
April,307.0,4879,825.3699528591925,Canal St & Rutgers St,40.71427487,-73.98990025
April,308.0,2140,985.3228971962617,St James Pl & Oliver St,40.71307916,-73.99851193
April,309.0,3391,1130.1899144795045,Murray St & West St,40.7149787,-74.013012
April,310.0,1596,1094.8245614035088,State St & Smith St,40.68926942,-73.98912867
April,311.0,3331,1307.6916841789252,Norfolk St & Broome St,40.7172274,-73.98802084
April,312.0,5685,1214.221635883905,Allen St & Stanton St,40.722055,-73.989111
April,313.0,1370,963.8248175182482,Washington Ave & Park Ave,40.69610226,-73.96751037
April,314.0,2175,986.7016091954023,Cadman Plaza West & Montague St,40.69383,-73.990539
April,315.0,4123,1446.3921901528013,South St & Gouverneur Ln,40.70355377,-74.00670227
April,316.0,2512,1053.4502388535032,Fulton St & William St,40.70955958,-74.00653609
April,317.0,4272,891.7759831460675,E 6 St & Avenue B,40.72453734,-73.98185424
April,319.0,4161,966.3753905311223,Fulton St & Broadway,40.711065999999995,-74.009447
April,320.0,2338,790.7878528656972,Leonard St & Church St,40.717571,-74.005549
April,321.0,2291,1135.4054997817548,Cadman Plaza E & Red Cross Pl,40.69991755,-73.98971773
April,323.0,2191,1800.0570515746235,Lawrence St & Willoughby St,40.69236178,-73.98631746
April,324.0,2200,1475.9163636363637,DeKalb Ave & Hudson Ave,40.689888,-73.981013
April,325.0,3643,726.668405160582,E 19 St & 3 Ave,40.73624527,-73.98473765
April,326.0,5089,848.8310080565926,E 11 St & 1 Ave,40.72953837,-73.98426726
April,327.0,6014,1281.1350182906551,Vesey Pl & River Terrace,40.715337899999994,-74.01658354
April,328.0,3620,832.6690607734806,Watts St & Greenwich St,40.72405549,-74.00965965
April,330.0,2197,838.8111060537096,Reade St & Broadway,40.71450451,-74.00562789
April,331.0,1871,1048.0438268305718,Pike St & Monroe St,40.71173107,-73.99193043
April,332.0,2073,1165.515677761698,Cherry St,40.71219906,-73.97948148
April,334.0,5068,899.0406471981057,W 20 St & 7 Ave,40.74238787,-73.99726235
April,335.0,4523,792.7844351094407,Washington Pl & Broadway,40.72903917,-73.99404649
April,336.0,5029,903.1694173792006,Sullivan St & Washington Sq,40.73047747,-73.99906065
April,337.0,2122,1124.9217719132894,Old Slip & Front St,40.703799200000006,-74.00838676
April,339.0,1509,1204.3313452617629,Avenue D & E 12 St,40.72580614,-73.97422494
April,340.0,1873,1220.0870261612386,Madison St & Clinton St,40.71269042,-73.98776323
April,341.0,1811,1730.90502484815,Stanton St & Mangin St,40.71782143,-73.97628939
April,342.0,1889,1596.5812599258868,Columbia St & Rivington St,40.71739973,-73.98016555
April,343.0,813,2554.318573185732,Clinton Ave & Flushing Ave,40.69794,-73.96986848
April,344.0,1176,1221.6845238095239,Monroe St & Bedford Ave,40.6851443,-73.95380904
April,346.0,3664,865.1394650655022,Bank St & Hudson St,40.73652889,-74.00618026
April,347.0,4664,1346.558104631218,Greenwich St & W Houston St,40.728846000000004,-74.00859100000001
April,349.0,2808,1386.7827635327635,Rivington St & Ridge St,40.71850211,-73.98329859
April,350.0,4609,940.4990236493817,Clinton St & Grand St,40.71559509,-73.9870295
April,351.0,2424,1207.095709570957,Front St & Maiden Ln,40.70530954,-74.00612572
April,353.0,1137,1500.6103781882146,S Portland Ave & Hanson Pl,40.68539567,-73.97431458
April,354.0,1295,1130.7915057915059,Emerson Pl & Myrtle Ave,40.69363137,-73.96223558
April,355.0,3139,943.707550175215,Bayard St & Baxter St,40.71602118,-73.99974372
April,356.0,1552,1676.1372422680413,Bialystoker Pl & Delancey St,40.71622644,-73.98261206
April,357.0,1636,832.2059902200489,E 11 St & Broadway,40.73261787,-73.99158043
April,358.0,8565,870.4214827787507,Christopher St & Greenwich St,40.73291553,-74.00711384
April,359.0,7299,754.5640498698452,E 47 St & Park Ave,40.75510267,-73.97498696
April,360.0,2353,1015.5006374840628,William St & Pine St,40.70717936,-74.00887308
April,361.0,4353,971.3501033769813,Allen St & Hester St,40.71605866,-73.99190759
April,362.0,2429,832.6595306710581,Broadway & W 37 St,40.75172632,-73.98753523
April,363.0,3611,1081.9451675436167,West Thames St,40.70834698,-74.01713445
April,364.0,1629,822.1669736034377,Lafayette Ave & Classon Ave,40.68900443,-73.96023854
April,365.0,1211,2043.1544178364989,Fulton St & Grand Ave,40.68223166,-73.9614583
April,366.0,2291,806.9803579223046,Clinton Ave & Myrtle Ave,40.693261,-73.968896
April,368.0,7798,997.0078225185945,Carmine St & 6 Ave,40.73038599,-74.00214988
April,369.0,1117,704.0107430617726,Washington Pl & 6 Ave,40.73224119,-74.00026394
April,372.0,657,994.8660578386606,Franklin Ave & Myrtle Ave,40.694546087246025,-73.95801365375519
April,373.0,633,1287.9320695102685,Willoughby Ave & Walworth St,40.69331716,-73.95381995
April,376.0,1915,887.1749347258485,John St & William St,40.70862144,-74.00722156
April,377.0,4560,967.3208333333333,6 Ave & Canal St,40.72243797,-74.00566443
April,379.0,7012,750.9298345693097,W 31 St & 7 Ave,40.749156,-73.9916
April,380.0,5894,917.1104513064133,W 4 St & 7 Ave S,40.73401143,-74.00293877
April,382.0,5678,752.8735470235998,University Pl & E 14 St,40.73492695,-73.99200509
April,383.0,4354,746.5748736793753,Greenwich Ave & Charles St,40.735238,-74.000271
April,385.0,3261,812.213124808341,E 55 St & 2 Ave,40.75797322,-73.96603308
April,386.0,2219,1128.0500225326723,Centre St & Worth St,40.71494807,-74.00234482
April,387.0,5316,1426.0976297968398,Centre St & Chambers St,40.71273266,-74.0046073
April,388.0,4173,836.0555954948478,W 26 St & 10 Ave,40.749717753,-74.002950346
April,389.0,2377,807.1590239798065,Broadway & Berry St,40.71044554,-73.96525063
April,390.0,2005,1479.7187032418954,Duffield St & Willoughby St,40.69221589,-73.9842844
April,391.0,3133,835.8321097989148,Clark St & Henry St,40.69760127,-73.99344559
April,392.0,2294,1654.0640802092414,Jay St & Tech Pl,40.695065,-73.987167
April,393.0,2197,748.6372325898953,E 5 St & Avenue C,40.72299208,-73.97995466
April,394.0,3736,1218.8787473233406,E 9 St & Avenue C,40.72521311,-73.97768752
April,396.0,805,1598.3813664596273,Lefferts Pl & Franklin Ave,40.680342423,-73.9557689392
April,397.0,730,2122.8945205479454,Fulton St & Clermont Ave,40.68415748,-73.96922273
April,398.0,2555,1380.9365949119374,Atlantic Ave & Furman St,40.69165183,-73.99997859999999
April,399.0,1747,984.8002289639381,Lafayette Ave & St James Pl,40.68851534,-73.9647628
April,400.0,734,3065.74931880109,Pitt St & Stanton St,40.71926081,-73.98178024
April,401.0,4484,855.7678412132025,Allen St & Rivington St,40.72019576,-73.98997825
April,402.0,10714,878.5856822848609,Broadway & E 22 St,40.740343200000005,-73.98955109
April,403.0,4365,781.623596792669,E 2 St & 2 Ave,40.72502876,-73.99069656
April,405.0,5774,1102.61880845168,Washington St & Gansevoort St,40.739323,-74.008119
April,406.0,2229,1038.1072229699416,Hicks St & Montague St,40.69512845,-73.99595065
April,407.0,1359,1261.1479028697572,Henry St & Poplar St,40.700469,-73.991454
April,408.0,1662,1103.8417569193743,Market St & Cherry St,40.71076228,-73.99400398
April,410.0,3650,1086.9731506849314,Suffolk St & Stanton St,40.72066442,-73.98517977
April,411.0,2820,1506.2925531914893,E 6 St & Avenue D,40.72228087,-73.97668709
April,412.0,4235,1004.1166469893743,Forsyth St & Canal St,40.715815500000005,-73.99422366
April,414.0,1736,1227.979262672811,Pearl St & Anchorage Pl,40.70281858,-73.98765762
April,415.0,2367,1046.3751584283905,Pearl St & Hanover Square,40.7047177,-74.00926027
April,416.0,1474,1481.353459972863,Cumberland St & Lafayette Ave,40.68753406,-73.97265183
April,417.0,3496,966.2737414187643,Barclay St & Church St,40.71291224,-74.01020234
April,418.0,1343,1122.6589724497394,Front St & Gold St,40.70224,-73.982578
April,419.0,862,2886.8677494199537,Carlton Ave & Park Ave,40.69580705,-73.97355569
April,420.0,1150,822.1008695652174,Clermont Ave & Lafayette Ave,40.68764484,-73.96968902
April,421.0,729,768.0425240054869,Clermont Ave & Park Ave,40.69573398,-73.97129668
April,422.0,2828,929.2284299858558,W 59 St & 10 Ave,40.770513,-73.988038
April,423.0,2925,851.0444444444445,W 54 St & 9 Ave,40.76584941,-73.98690506
April,426.0,8996,1105.5158959537573,West St & Chambers St,40.71754834,-74.01322069
April,427.0,2454,1355.674816625917,Bus Slip & State St,40.701907,-74.013942
April,432.0,5965,847.1745180217938,E 7 St & Avenue A,40.72621788,-73.98379855
April,435.0,10009,750.5392147067639,W 21 St & 6 Ave,40.74173969,-73.99415556
April,436.0,715,2526.6517482517484,Hancock St & Bedford Ave,40.68216564,-73.95399026
April,437.0,1419,2419.5553206483437,Macon St & Nostrand Ave,40.6809833854,-73.9500479759
April,438.0,5332,861.7524381095274,St Marks Pl & 1 Ave,40.72779126,-73.98564945
April,439.0,5096,833.6809262166405,E 4 St & 2 Ave,40.726280700000004,-73.98978041
April,440.0,3473,811.3161531816874,E 45 St & 3 Ave,40.75255434,-73.97282625
April,441.0,2881,890.7979868101354,E 52 St & 2 Ave,40.756014,-73.967416
April,442.0,5749,757.9151156722909,W 27 St & 7 Ave,40.746646999999996,-73.993915
April,443.0,643,1972.2566096423018,Bedford Ave & S 9 St,40.70853074,-73.96408963
April,445.0,6655,927.3980465815176,E 10 St & Avenue A,40.72740794,-73.98142006
April,446.0,6267,709.2892931227062,W 24 St & 7 Ave,40.74487634,-73.99529885
April,447.0,4742,850.2863770560945,8 Ave & W 52 St,40.76370739,-73.9851615
April,448.0,3852,790.5051921079959,W 37 St & 10 Ave,40.75660359,-73.9979009
April,450.0,4482,779.4696564033914,W 49 St & 8 Ave,40.76227205,-73.98788205
April,453.0,4993,937.6354896855598,W 22 St & 8 Ave,40.74475148,-73.99915362
April,454.0,2064,831.3168604651163,E 51 St & 1 Ave,40.75455731,-73.96592976
April,455.0,3382,978.3205204021289,1 Ave & E 44 St,40.75001986,-73.96905301
April,456.0,2998,730.5096731154102,E 53 St & Madison Ave,40.75971079999999,-73.97402311
April,458.0,6424,1080.5191469489414,11 Ave & W 27 St,40.751396,-74.00522600000001
April,459.0,8609,946.1004762457893,W 20 St & 11 Ave,40.746745000000004,-74.007756
April,460.0,3992,1530.131012024048,S 4 St & Wythe Ave,40.71285887,-73.96590294
April,461.0,5247,931.7219363445779,E 20 St & 2 Ave,40.73587678,-73.98205027
April,462.0,5140,902.7313229571985,W 22 St & 10 Ave,40.74691959,-74.00451887
April,465.0,6892,821.4228090539756,Broadway & W 41 St,40.75513557,-73.98658032
April,466.0,5596,685.626876340243,W 25 St & 6 Ave,40.74395411,-73.99144871
April,467.0,2537,673.1087899093418,Dean St & 4 Ave,40.68312489,-73.97895137
April,468.0,6847,859.3876150138747,Broadway & W 56 St,40.7652654,-73.98192338
April,469.0,3166,732.3073278584965,Broadway & W 53 St,40.76344058,-73.98268129
April,470.0,4641,773.0114199525964,W 20 St & 8 Ave,40.74345335,-74.00004031
April,471.0,1752,1375.5473744292237,Grand St & Havemeyer St,40.71286844,-73.95698119
April,472.0,5707,698.2372524969336,E 32 St & Park Ave,40.745712100000006,-73.98194829
April,473.0,3241,2345.840172786177,Rivington St & Chrystie St,40.72110063,-73.99192540000001
April,474.0,5099,801.6807217101392,5 Ave & E 29 St,40.7451677,-73.98683077
April,476.0,4997,752.9469681809086,E 31 St & 3 Ave,40.74394314,-73.97966069
April,477.0,7358,807.9754009241642,W 41 St & 8 Ave,40.75640548,-73.9900262
April,478.0,4613,905.9078690656839,11 Ave & W 41 St,40.76030096,-73.99884222
April,479.0,5303,859.9070337544786,9 Ave & W 45 St,40.76019252,-73.9912551
April,480.0,3617,990.3030135471386,W 53 St & 10 Ave,40.76669671,-73.99061728
April,481.0,2286,1076.7895888013998,S 3 St & Bedford Ave,40.71260486,-73.96264403
April,482.0,4828,666.1574150787076,W 15 St & 7 Ave,40.73935542,-73.99931783
April,483.0,5206,737.3978102189781,E 12 St & 3 Ave,40.73223272,-73.98889957
April,484.0,3633,789.0814753647123,W 44 St & 5 Ave,40.75500254,-73.98014437
April,485.0,3398,803.9246615656268,W 37 St & 5 Ave,40.75038009,-73.98338988
April,486.0,5750,841.4692173913044,Broadway & W 29 St,40.7462009,-73.98855723
April,487.0,4904,752.4355628058728,E 20 St & FDR Drive,40.73314259,-73.97573881
April,490.0,8518,910.6886593096971,8 Ave & W 33 St,40.751551,-73.993934
April,491.0,6904,911.2042294322132,E 24 St & Park Ave S,40.74096374,-73.98602213
April,492.0,6833,803.1674228011123,W 33 St & 7 Ave,40.75019995,-73.99093085
April,493.0,227,838.2907488986784,W 45 St & 6 Ave,40.7568001,-73.98291153
April,494.0,5734,767.3146145797,W 26 St & 8 Ave,40.74734825,-73.99723551
April,495.0,3954,806.441325240263,W 47 St & 10 Ave,40.76269882,-73.99301222
April,496.0,5631,754.6497957733973,E 16 St & 5 Ave,40.73726186,-73.99238967
April,497.0,10411,799.1245797713956,E 17 St & Broadway,40.73704984,-73.99009296
April,498.0,5150,767.2679611650485,Broadway & W 32 St,40.74854862,-73.98808416
April,499.0,9248,1220.0715830449826,Broadway & W 60 St,40.76915505,-73.98191841
April,500.0,3611,951.3791193575187,Broadway & W 51 St,40.76228826,-73.98336183
April,501.0,4181,1144.748146376465,FDR Drive & E 35 St,40.744219,-73.97121214
April,502.0,3226,936.083075015499,Henry St & Grand St,40.714215,-73.981346
April,503.0,4605,791.4814332247557,E 20 St & Park Ave,40.73827428,-73.98751968
April,504.0,7213,875.4299182032441,1 Ave & E 16 St,40.73221853,-73.98165557
April,505.0,7421,846.8269774962943,6 Ave & W 33 St,40.74901271,-73.98848395
April,507.0,5548,857.3478731074262,E 25 St & 2 Ave,40.73912601,-73.97973776
April,508.0,3711,991.6604688763136,W 46 St & 11 Ave,40.76341379,-73.99667444
April,509.0,6211,748.1846723554983,9 Ave & W 22 St,40.7454973,-74.00197139
April,513.0,3007,859.310276022614,W 56 St & 10 Ave,40.768254,-73.988639
April,514.0,8221,1508.27794672181,12 Ave & W 40 St,40.76087502,-74.00277668
April,515.0,3937,871.5826771653543,W 43 St & 10 Ave,40.76009437,-73.99461843
April,516.0,1808,890.8091814159292,E 47 St & 1 Ave,40.75206862,-73.96784384
April,517.0,5499,884.5450081833061,Pershing Square South,40.751581,-73.97791
April,518.0,5063,1028.6748963065377,E 39 St & 2 Ave,40.74780373,-73.97344190000001
April,519.0,13625,823.8949724770642,Pershing Square North,40.751872999999996,-73.97770600000001
April,520.0,5243,855.179477398436,W 52 St & 5 Ave,40.75992262,-73.97648516
April,522.0,2930,845.1283276450512,E 51 St & Lexington Ave,40.75714758,-73.97207836
April,523.0,7467,835.0920048212133,W 38 St & 8 Ave,40.75466591,-73.99138152
April,524.0,4495,979.0106785317018,W 43 St & 6 Ave,40.75527307,-73.98316936
April,525.0,6051,1177.69823169724,W 34 St & 11 Ave,40.75594159,-74.0021163
April,526.0,4584,887.4624781849913,E 33 St & 5 Ave,40.74765947,-73.98490707
April,528.0,5481,1005.3835066593688,2 Ave & E 31 St,40.74290902,-73.97706058
April,529.0,4381,820.211367267747,W 42 St & 8 Ave,40.75756989999999,-73.99098507
April,530.0,4600,1232.2028260869565,11 Ave & W 59 St,40.771496710544405,-73.99046033620834
April,531.0,4729,843.6980334108691,Forsyth St & Broome St,40.71893904,-73.99266288
April,532.0,4132,1470.5977734753146,S 5 Pl & S 5 St,40.710451,-73.960876
April,533.0,4062,1282.797636632201,Broadway & W 38 St,40.75299641,-73.98721619
April,534.0,1982,992.8072653884965,Water - Whitehall Plaza,40.70255065,-74.0127234
April,536.0,3928,735.8892566191446,1 Ave & E 30 St,40.74144387,-73.97536082
April,539.0,4130,954.7861985472155,Metropolitan Ave & Bedford Ave,40.71534825,-73.96024116
April,540.0,3920,1004.9492346938775,Lexington Ave & E 29 St,40.74311555376486,-73.98215353488922
April,545.0,5392,727.9462166172107,E 23 St & 1 Ave,40.736502,-73.97809472
April,546.0,4103,911.3884962222763,E 30 St & Park Ave S,40.74444921,-73.98303529
April,2000.0,3147,1222.3295201779472,Front St & Washington St,40.70255088,-73.98940236
April,2002.0,3186,1126.302887633396,Wythe Ave & Metropolitan Ave,40.716887,-73.96319799999999
April,2003.0,4800,769.270625,1 Ave & E 18 St,40.73381219196632,-73.9805442094803
April,2005.0,78,1555.448717948718,Railroad Ave & Kay Ave,40.70531194,-73.97100056
April,2006.0,7083,1941.000847098687,Central Park S & 6 Ave,40.76590936,-73.97634151
April,2008.0,4570,1153.3859956236324,Little West St & 1 Pl,40.70569254,-74.01677685
April,2009.0,1984,871.5226814516129,Catherine St & Monroe St,40.71117444,-73.99682619
April,2012.0,4046,837.1863568956994,E 27 St & 1 Ave,40.739445,-73.97680600000001
April,2017.0,1956,906.3006134969326,E 43 St & 2 Ave,40.75022392,-73.97121414
April,2021.0,4470,885.3080536912752,W 45 St & 8 Ave,40.75929124,-73.98859651
April,2022.0,1126,1091.3525754884547,E 60 St & York Ave,40.759107,-73.959223
April,2023.0,2153,869.1695308871342,E 55 St & Lexington Ave,40.75968085,-73.97031366
April,3002.0,7244,1146.0033130866925,South End Ave & Liberty St,40.711512,-74.01575600000001
April,3016.0,4179,1675.589854032065,Kent Ave & N 7 St,40.72036775298455,-73.96165072917937
April,3041.0,642,3730.940809968847,Kingston Ave & Herkimer St,40.67890679,-73.94142771
April,3042.0,649,8497.013867488444,Fulton St & Utica Ave,40.6794268,-73.92989109999999
April,3043.0,330,9422.321212121213,Lewis Ave & Decatur St,40.6814598,-73.934903
April,3044.0,279,8289.437275985663,Albany Ave & Fulton St,40.6800105,-73.938475
April,3046.0,531,1007.9830508474577,Marcus Garvey Blvd & Macon St,40.682601,-73.938037
April,3047.0,714,4768.355742296919,Halsey St & Tompkins Ave,40.682368700000005,-73.944118
April,3048.0,445,5277.303370786517,Putnam Ave & Nostrand Ave,40.684020000000004,-73.94977
April,3049.0,754,702.895225464191,Cambridge Pl & Gates Ave,40.68488,-73.96304
April,3050.0,683,3050.459736456808,Putnam Ave & Throop Ave,40.6851532,-73.94111
April,3052.0,734,5010.5027247956405,Lewis Ave & Madison St,40.686312,-73.935775
April,3053.0,487,1331.2915811088296,Marcy Ave & Lafayette Ave,40.6900815,-73.94791500000001
April,3054.0,561,4047.741532976827,Greene Ave & Throop Ave,40.6894932,-73.942061
April,3055.0,689,2408.7939042089984,Greene Ave & Nostrand Ave,40.68833370000001,-73.950916
April,3056.0,737,3151.675712347354,Kosciuszko St & Nostrand Ave,40.69072549,-73.95133465
April,3057.0,826,2137.943099273608,Kosciuszko St & Tompkins Ave,40.69128258,-73.9452416
April,3058.0,663,1823.5565610859728,Lewis Ave & Kosciuszko St,40.69237074,-73.93705428
April,3059.0,515,837.6796116504854,Pulaski St & Marcus Garvey Blvd,40.693398200000004,-73.939877
April,3060.0,600,3123.1583333333333,Willoughby Ave & Tompkins Ave,40.69425403,-73.94626915
April,3061.0,467,1107.8886509635975,Throop Ave & Myrtle Ave,40.69622937,-73.94371094
April,3062.0,641,5254.917316692668,Myrtle Ave & Marcy Ave,40.69539817,-73.94954908
April,3063.0,496,1253.899193548387,Nostrand Ave & Myrtle Ave,40.69527008,-73.95238108
April,3064.0,1073,922.9944082013047,Myrtle Ave & Lewis Ave,40.69681963,-73.93756926
April,3065.0,563,1190.7140319715809,Union Ave & Wallabout St,40.70029511,-73.95032283
April,3066.0,557,2190.477558348294,Tompkins Ave & Hopkins St,40.69957608,-73.94708417
April,3067.0,705,5246.506382978723,Broadway & Whipple St,40.7016657,-73.9437303
April,3068.0,586,4854.786689419795,Humboldt St & Varet St,40.7031724,-73.940636
April,3069.0,510,1002.8058823529411,Lorimer St & Broadway,40.70411791,-73.94818595
April,3070.0,432,1673.2962962962963,McKibbin St & Manhattan Ave,40.70510918,-73.94407279
April,3071.0,729,1399.9396433470508,Boerum St & Broadway,40.70538077,-73.94976519
April,3072.0,577,1185.1767764298093,Leonard St & Boerum St,40.70583339,-73.94644578
April,3074.0,1233,1976.6163828061638,Montrose Ave & Bushwick Ave,40.70767788,-73.94016171
April,3075.0,413,3005.818401937046,Division Ave & Marcy Ave,40.70708701,-73.95796783
April,3076.0,1115,942.0565022421524,Scholes St & Manhattan Ave,40.70870368,-73.9448625
April,3077.0,1378,856.2046444121916,Stagg St & Union Ave,40.70877084,-73.95095259
April,3078.0,1780,752.3926966292134,Broadway & Roebling St,40.70924826276157,-73.96063148975372
April,3080.0,1182,821.2233502538071,S 4 St & Rodney St,40.709340000000005,-73.95608
April,3081.0,1106,5569.118444846293,Graham Ave & Grand St,40.711863,-73.944024
April,3082.0,1581,1026.3415559772295,Hope St & Union Ave,40.71167351,-73.95141312
April,3083.0,978,1829.4815950920245,Bushwick Ave & Powers St,40.71247661,-73.94100005
April,3085.0,1349,953.0192735359526,Roebling St & N 4 St,40.714690000000004,-73.95739
April,3086.0,2197,682.1442876649977,Graham Ave & Conselyea St,40.715143,-73.944507
April,3087.0,1560,1805.9153846153847,Metropolitan Ave & Meeker Ave,40.71413311,-73.95234386
April,3088.0,726,1077.3870523415978,Union Ave & Jackson St,40.7160751,-73.95202900000001
April,3092.0,2546,735.3409269442262,Berry St & N 8 St,40.7190095,-73.95852515
April,3093.0,3983,910.4215415515943,N 6 St & Bedford Ave,40.71745169,-73.95850939
April,3094.0,872,1739.1066513761468,Graham Ave & Withers St,40.7169811,-73.94485918
April,3095.0,672,582.3571428571429,Graham Ave & Herbert St,40.71929301,-73.94500379
April,3096.0,1678,905.1728247914184,Union Ave & N 12 St,40.71924,-73.95241999999999
April,3100.0,1464,936.4323770491803,Nassau Ave & Newell St,40.724812564400175,-73.94752621650694
April,3101.0,1713,1300.6042031523643,N 12 St & Bedford Ave,40.72079821,-73.95484712
April,3102.0,1087,949.4710211591537,Driggs Ave & Lorimer St,40.72179134,-73.95041540000001
April,3105.0,713,777.6661991584853,N 15 St & Wythe Ave,40.724055,-73.955736
April,3106.0,1482,808.1923076923077,Driggs Ave & N Henry St,40.72325,-73.94308000000001
April,3107.0,2211,897.7548620533695,Bedford Ave & Nassau Ave,40.72311651,-73.95212324
April,3108.0,2087,745.4355534259703,Nassau Ave & Russell St,40.725570000000005,-73.94434
April,3109.0,1532,1466.4706266318537,Banker St & Meserole Ave,40.72606,-73.95621
April,3110.0,2124,710.0065913370998,Meserole Ave & Manhattan Ave,40.72708584,-73.95299117
April,3112.0,2742,913.7654996353027,Milton St & Franklin St,40.72906,-73.95779
April,3113.0,1942,840.768280123584,Greenpoint Ave & Manhattan Ave,40.730259999999994,-73.95394
April,3115.0,1637,816.1154551007942,India St & Manhattan Ave,40.73232194,-73.9550858
April,3116.0,1597,844.3644333124608,Huron St & Franklin St,40.732659999999996,-73.95826
April,3117.0,1254,914.5590111642744,Franklin St & Dupont St,40.735640000000004,-73.95866
April,3118.0,1646,957.2922235722965,McGuinness Blvd & Eagle St,40.73555,-73.95284000000001
April,3119.0,2576,637.3575310559006,Vernon Blvd & 50 Ave,40.74232744,-73.95411749
April,3121.0,521,1927.088291746641,Jackson Ave & 46 Rd,40.74524768,-73.94733276
April,3122.0,432,941.8819444444445,48 Ave & 5 St,40.74436328706688,-73.95587325096129
April,3123.0,466,1323.128755364807,31 St & Thomson Ave,40.74469738,-73.93540375
April,3124.0,1547,584.688429217841,46 Ave & 5 St,40.74731,-73.95451
April,3125.0,1147,891.4934612031386,45 Rd & 11 St,40.74708586,-73.94977234
April,3126.0,1328,973.3170180722891,44 Dr & Jackson Ave,40.74718234,-73.9432635
April,3127.0,440,1077.5590909090909,9 St & 44 Rd,40.74966,-73.9521
April,3128.0,387,763.8811369509044,21 St & 43 Ave,40.75052534,-73.94594845
April,3129.0,2473,1173.3449251920745,Queens Plaza North & Crescent St,40.75110165,-73.94073717
April,3130.0,841,866.8014268727705,21 St & Queens Plaza North,40.75325964,-73.94335788
April,3131.0,1200,735.0408333333334,E 68 St & 3 Ave,40.76712840349542,-73.96224617958069
April,3132.0,2335,906.8942184154175,E 59 St & Madison Ave,40.76350532,-73.97109243
April,3134.0,1814,1002.9751929437707,3 Ave & E 62 St,40.76312584,-73.96526895
April,3135.0,1531,831.7400391900718,E 75 St & 3 Ave,40.77112927,-73.95772297
April,3136.0,2366,1499.1060862214708,5 Ave & E 63 St,40.766368,-73.971518
April,3137.0,5304,1453.9722850678734,5 Ave & E 73 St,40.77282817,-73.96685276
April,3139.0,1591,952.2042740414834,E 72 St & Park Ave,40.77118287540658,-73.96409422159195
April,3140.0,3947,782.4722574106917,1 Ave & E 78 St,40.77140426,-73.9535166
April,3141.0,5546,890.7098809953119,1 Ave & E 68 St,40.76500525,-73.95818491
April,3142.0,4090,865.3606356968215,1 Ave & E 62 St,40.761227399999996,-73.96094022
April,3143.0,4003,1458.1134149387958,5 Ave & E 78 St,40.77632142182271,-73.96427392959596
April,3144.0,721,878.8196948682386,E 81 St & Park Ave,40.77677702,-73.95900970000001
April,3145.0,1642,1026.8093788063338,E 84 St & Park Ave,40.77862688,-73.95772073
April,3146.0,1343,845.4921816827997,E 81 St & 3 Ave,40.77573034,-73.9567526
April,3148.0,2164,814.0965804066543,E 84 St & 1 Ave,40.77565541,-73.95068615
April,3150.0,1092,846.7051282051282,E 85 St & York Ave,40.77536905,-73.94803392
April,3151.0,1676,800.5453460620525,E 81 St & York Ave,40.7728384,-73.94989233
April,3152.0,877,807.9464082098061,3 Ave & E 71 St,40.76873687,-73.96119945
April,3154.0,1680,805.1684523809524,E 77 St & 3 Ave,40.77314236,-73.95856158
April,3155.0,2158,830.2933271547729,Lexington Ave & E 63 St,40.76440023,-73.96648977
April,3156.0,3118,900.5484284797948,E 72 St & York Ave,40.76663814,-73.95348296
April,3157.0,848,1208.6509433962265,East End Ave & E 86 St,40.77518615,-73.94446054
April,3158.0,3942,884.6768138001015,W 63 St & Broadway,40.77163851,-73.98261428
April,3159.0,3366,787.3535353535353,W 67 St & Broadway,40.77492513,-73.98266566
April,3160.0,3414,1600.762741652021,Central Park West & W 76 St,40.77896784,-73.97374737
April,3161.0,2679,997.3359462486002,W 76 St & Columbus Ave,40.7801839724239,-73.97728532552719
April,3162.0,1835,836.0626702997275,W 78 St & Broadway,40.78339981,-73.98093133
April,3163.0,5113,1378.962057500489,Central Park West & W 68 St,40.7734066,-73.97782542
April,3164.0,5391,856.6644407345576,Columbus Ave & W 72 St,40.7770575,-73.97898475
April,3165.0,5981,1258.7015549239259,Central Park West & W 72 St,40.77579376683666,-73.97620573639871
April,3166.0,2561,1259.1557985162046,Riverside Dr & W 72 St,40.780577990103346,-73.98562431335448
April,3167.0,4540,828.6689427312775,Amsterdam Ave & W 73 St,40.779668090073116,-73.98093044757842
April,3168.0,4304,1294.3873141263941,Central Park West & W 85 St,40.78472675,-73.96961715
April,3169.0,1673,1380.9557680812911,Riverside Dr & W 82 St,40.78720869,-73.98128127
April,3170.0,2252,865.0954706927176,W 84 St & Columbus Ave,40.78499979,-73.97283406
April,3171.0,2731,868.4467228121567,Amsterdam Ave & W 82 St,40.78524672,-73.97667321
April,3172.0,1713,770.150029188558,W 74 St & Columbus Ave,40.7785669,-73.97754961
April,3173.0,2732,1225.3513909224012,Riverside Blvd & W 67 St,40.777507027547976,-73.98888587951659
April,3175.0,2805,771.7461675579323,W 70 St & Amsterdam Ave,40.77748046,-73.98288594
April,3177.0,1750,1153.5348571428572,W 84 St & Broadway,40.7867947,-73.977112
April,3178.0,1573,1364.283534647171,Riverside Dr & W 78 St,40.78414472,-73.98362492
April,3179.0,504,2056.434523809524,Park Ave & Marcus Garvey Blvd,40.698617,-73.941342
April,3182.0,1,397.0,Yankee Ferry Terminal,40.686931,-74.016966
April,3221.0,364,1239.673076923077,47 Ave & 31 St,40.743,-73.93561
April,3223.0,3013,838.6372386325921,E 55 St & 3 Ave,40.758996559605116,-73.96865397691727
April,3226.0,2728,1163.4453812316715,W 82 St & Central Park West,40.78275,-73.97137
April,3231.0,1010,877.6415841584159,E 67 St & Park Ave,40.76780080148132,-73.96592080593109
April,3232.0,1850,974.8421621621621,Bond St & Fulton St,40.68962188790333,-73.98304268717766
April,3233.0,5919,883.2267274877513,E 48 St & 5 Ave,40.75724567911726,-73.97805914282799
April,3235.0,4154,659.4010592200289,E 41 St & Madison Ave,40.752165280621966,-73.97992193698882
April,3236.0,4277,914.0881458966566,W 42 St & Dyer Ave,40.75898481399634,-73.99379968643187
April,3241.0,774,8244.909560723514,Monroe St & Tompkins Ave,40.686203000000006,-73.944694
April,3242.0,1656,1858.131038647343,Schermerhorn St & Court St,40.69102925677968,-73.99183362722397
April,3243.0,1234,983.2633711507293,E 58 St & 1 Ave (NE Corner),40.75892386377695,-73.96226227283478
April,3244.0,2193,631.3465572275422,University Pl & E 8 St,40.73143724085228,-73.99490341544151
April,3249.0,657,1203.9847792998478,Verona Pl & Fulton St,40.680356084043396,-73.94767910242079
April,3254.0,8,1352.625,Soissons Landing,40.69231660719192,-74.01486575603484
April,3255.0,10141,843.3537126516122,8 Ave & W 31 St,40.7505853470215,-73.9946848154068
April,3256.0,5595,1247.4187667560323,Pier 40 - Hudson River Park,40.7277140777778,-74.01129573583603
April,3258.0,5518,1139.832366799565,W 27 St & 10 Ave,40.750181563256824,-74.00218427181244
April,3259.0,3676,951.6479869423287,9 Ave & W 28 St,40.74937024193277,-73.99923384189607
April,3260.0,4843,1090.408837497419,Mercer St & Bleecker St,40.72706363348306,-73.99662137031554
April,3263.0,6862,671.9105217137861,Cooper Square & Astor Pl,40.729514962249496,-73.99075269699097
April,3282.0,5629,1530.1547344110854,5 Ave & E 88 St,40.78307,-73.95939
April,3283.0,2129,856.9426961014561,W 89 St & Columbus Ave,40.7882213,-73.97041561
April,3284.0,1340,869.8529850746269,E 88 St & Park Ave,40.781410700190015,-73.95595908164978
April,3285.0,1592,991.5238693467337,W 87 St & Amsterdam Ave,40.78839,-73.9747
April,3286.0,1826,957.1998904709748,E 89 St & 3 Ave,40.7806284,-73.9521667
April,3288.0,1801,898.8617434758468,E 88 St & 1 Ave,40.778301,-73.9488134
April,3289.0,1191,940.5625524769101,W 90 St & Amsterdam Ave,40.79017948095081,-73.97288918495178
April,3290.0,1264,917.9549050632911,E 89 St & York Ave,40.7779453,-73.94604100000001
April,3292.0,1975,1369.1837974683544,5 Ave & E 93 St,40.785785100000005,-73.957481
April,3293.0,1586,905.4520807061791,W 92 St & Broadway,40.7921,-73.9739
April,3294.0,1420,878.4133802816901,E 91 St & Park Ave,40.7835016,-73.955327
April,3295.0,3868,1258.1657187176836,Central Park W & W 96 St,40.791270000000004,-73.964839
April,3296.0,1165,871.3038626609442,E 93 St & 2 Ave,40.78245417527987,-73.94891962409021
April,3297.0,792,780.6426767676768,6 St & 7 Ave,40.668662700000006,-73.97988067
April,3298.0,1143,880.6447944006999,Warren St & Court St,40.686371,-73.99383324
April,3299.0,489,855.0552147239264,E 98 St & Park Ave,40.788129999999995,-73.95206
April,3300.0,1384,970.9588150289018,Prospect Park West & 8 St,40.66514681533792,-73.97637605667114
April,3301.0,2832,867.5617937853108,Columbus Ave & W 95 St,40.7919557,-73.968087
April,3302.0,379,1194.5804749340368,Columbus Ave & W 103 St,40.7969347,-73.9643412291
April,3303.0,858,850.3659673659673,Butler St & Court St,40.6849894,-73.99440329
April,3304.0,1194,769.9907872696817,6 Ave & 9 St,40.668127,-73.98377641
April,3305.0,2038,903.653091265947,E 91 St & 2 Ave,40.781122299341654,-73.94965589046478
April,3306.0,1091,703.570119156737,10 St & 7 Ave,40.666207799999995,-73.98199886
April,3307.0,1325,1186.702641509434,West End Ave & W 94 St,40.7941654,-73.974124
April,3308.0,1211,766.1998348472337,Kane St & Clinton St,40.686175799999994,-73.99645295
April,3309.0,553,803.0705244122965,E 97 St & 3 Ave,40.7859201,-73.94860294
April,3310.0,1074,763.8268156424581,14 St & 7 Ave,40.663779,-73.98396846
April,3311.0,935,1404.6652406417113,Columbia St & Kane St,40.68763155,-74.0016256
April,3312.0,1480,900.002027027027,1 Ave & E 94 St,40.78172120000001,-73.94594000000001
April,3313.0,836,900.5574162679426,6 Ave & 12 St,40.666318100000005,-73.9854617
April,3314.0,2292,1191.4694589877836,W 95 St & Broadway,40.7937704,-73.971888
April,3315.0,1427,782.0805886475123,Henry St & Degraw St,40.684751399999996,-73.99917254
April,3317.0,609,1415.7816091954023,10 St & 5 Ave,40.6686273,-73.98700053
April,3318.0,2227,835.1306690615178,2 Ave & E 96 St,40.7839636,-73.94716729999999
April,3319.0,956,975.43410041841,14 St & 5 Ave,40.666287,-73.98895053
April,3320.0,2275,1471.2193406593406,Central Park West & W 100 St,40.794066608185524,-73.96286845207214
April,3321.0,1211,696.1651527663088,Clinton St & Union St,40.683116399999996,-73.99785267
April,3322.0,406,2170.8546798029556,12 St & 4 Ave,40.668603000000004,-73.99043940000001
April,3323.0,1579,1259.9417352754908,W 106 St & Central Park West,40.798185600000004,-73.96059090060001
April,3324.0,541,2340.7079482439926,3 Ave & 14 St,40.6685455,-73.99333264
April,3326.0,233,1234.0171673819743,Clinton St & Centre St,40.67434,-74.00194698
April,3327.0,415,1152.8144578313254,3 Ave & E 100 St,40.787721399999995,-73.94728331
April,3328.0,1393,1251.0172290021537,W 100 St & Manhattan Ave,40.795,-73.9645
April,3329.0,1062,791.032956685499,Degraw St & Smith St,40.6829151,-73.99318208
April,3330.0,194,1304.3969072164948,Henry St & Bay St,40.672505799999996,-74.00494695
April,3331.0,1261,1482.8080888183981,Riverside Dr & W 104 St,40.8013434,-73.97114574390001
April,3332.0,778,724.0848329048844,Degraw St & Hoyt St,40.68199044270703,-73.99079024791719
April,3333.0,92,3933.4239130434785,Columbia St & Lorraine St,40.6747055,-74.00755720000001
April,3335.0,1284,1593.3707165109033,Union St & 4 Ave,40.6772744,-73.98282002
April,3336.0,1726,1005.7097334878331,E 97 St & Madison Ave,40.787801,-73.953559
April,3337.0,243,1129.724279835391,Dwight St & Van Dyke St,40.67363551341504,-74.01195555925368
April,3338.0,620,839.5661290322581,2 Ave & E 99 St,40.786258600000004,-73.94552579
April,3339.0,760,797.3802631578948,Berkeley Pl & 6 Ave,40.6765304,-73.97846879
April,3340.0,230,729.4478260869565,Wolcott St & Dwight St,40.6753274,-74.0100698
April,3341.0,1021,1348.4799216454455,Central Park West & W 102 St,40.795346,-73.96186
April,3342.0,213,844.6854460093897,Pioneer St & Richards St,40.677774799999995,-74.0094613
April,3343.0,828,2177.022946859903,W 107 St & Columbus Ave,40.7997568,-73.9621128676
April,3344.0,688,1723.9912790697674,Pioneer St & Van Brunt St,40.679043,-74.011169
April,3345.0,1063,898.4186265286924,Madison Ave & E 99 St,40.78948541553215,-73.9524292945862
April,3346.0,2101,744.1437410756782,Berkeley Pl & 7 Ave,40.675146838709786,-73.9752320945263
April,3347.0,623,1086.7977528089887,Van Brunt St & Wolcott St,40.6773429,-74.01275056
April,3348.0,488,1077.325819672131,Coffey St & Conover St,40.677236,-74.015665
April,3349.0,2581,1306.9101123595506,Grand Army Plaza & Plaza St West,40.6729679,-73.97087984
April,3350.0,1988,950.0905432595573,W 100 St & Broadway,40.797372100000004,-73.97041192
April,3351.0,1684,696.3295724465559,E 102 St & 1 Ave,40.7869946,-73.94164802
April,3352.0,339,1172.448377581121,Sigourney St & Columbia St,40.67267243410948,-74.00879524648191
April,3354.0,2030,1207.8591133004927,3 St & Prospect Park West,40.668132,-73.97363831
April,3355.0,930,1152.590322580645,E 66 St & Madison Ave,40.768008893059466,-73.96845281124116
April,3356.0,1518,825.9426877470356,Amsterdam Ave & W 66 St,40.7746671,-73.98470567
April,3357.0,1059,1057.2464589235128,W 106 St & Amsterdam Ave,40.80083629999999,-73.9664492472
April,3358.0,1129,726.0336581045173,Garfield Pl & 8 Ave,40.671197799999995,-73.97484126
April,3359.0,1085,861.4119815668203,E 68 St & Madison Ave,40.7691572,-73.96703464
April,3360.0,2721,871.1554575523704,Amsterdam Ave & W 79 St,40.7829391,-73.9786517
April,3361.0,1360,855.1536764705883,Carroll St & 6 Ave,40.6740886,-73.9787282
April,3362.0,1886,1196.6977730646872,Madison Ave & E 82 St,40.7781314,-73.96069399
April,3363.0,786,1033.1259541984732,E 102 St & Park Ave,40.7904828,-73.95033068
April,3364.0,1132,3006.9478798586574,Carroll St & 5 Ave,40.6751622,-73.9814832
April,3365.0,1399,714.5611150822016,3 St & 7 Ave,40.67038370000001,-73.97839676
April,3366.0,1104,1352.2092391304348,West End Ave & W 107 St,40.8021174,-73.9681805305
April,3367.0,2389,1496.4847216408539,5 Ave & E 103 St,40.792255299999994,-73.95249933
April,3368.0,1383,854.529284164859,5 Ave & 3 St,40.672815500000006,-73.98352355
April,3369.0,1257,925.1877486077964,E 82 St & East End Ave,40.7724607,-73.9468208
April,3370.0,1331,821.8204357625846,E 78 St & 2 Ave,40.7727966,-73.95577801
April,3371.0,402,11231.781094527363,4 Ave & 2 St,40.674613422475815,-73.98501142859459
April,3372.0,2445,861.5047034764826,E 74 St & 1 Ave,40.7689738,-73.95482273
April,3373.0,1163,800.7076526225279,3 St & 3 Ave,40.675070500000004,-73.98775226
April,3374.0,3700,1835.8221621621622,Central Park North & Adam Clayton Powell Blvd,40.799484,-73.955613
April,3375.0,971,829.8022657054582,3 Ave & E 72 St,40.7699426,-73.96060712
April,3376.0,1606,826.8088418430884,E 65 St & 2 Ave,40.76471851944339,-73.96222069859505
April,3377.0,1190,1863.896638655462,Carroll St & Bond St,40.6786115,-73.99037292
April,3378.0,1633,844.3380281690141,E 76 St & Park Ave,40.773763,-73.96222088
April,3379.0,1035,788.3932367149758,E 103 St & Lexington Ave,40.790305100000005,-73.94755757
April,3381.0,599,802.889816360601,3 St & Hoyt St,40.6777287,-73.99364123
April,3382.0,1695,777.8289085545723,Carroll St & Smith St,40.680611,-73.99475825
April,3383.0,1736,986.4884792626729,Cathedral Pkwy & Broadway,40.804213,-73.96699104
April,3384.0,1006,747.2266401590457,Smith St & 3 St,40.678724200000005,-73.99599099
April,3386.0,1016,695.7637795275591,1 Pl & Clinton St,40.6809591,-73.99905709
April,3387.0,752,1194.035904255319,E 106 St & Madison Ave,40.79343370000001,-73.94945003
April,3388.0,857,819.9988331388565,President St & Henry St,40.6828003,-73.99990419
April,3389.0,947,893.519535374868,Carroll St & Columbia St,40.6830456,-74.00348559
April,3390.0,732,870.1857923497267,E 109 St & 3 Ave,40.79329668,-73.9432083
April,3391.0,577,738.7816291161179,E 106 St & 1 Ave,40.7892529,-73.93956237
April,3392.0,364,1582.684065934066,Commerce St & Van Brunt St,40.681211700000006,-74.00860912
April,3393.0,260,1044.176923076923,Richards St & Delavan St,40.67943270000001,-74.00785041
April,3394.0,242,842.1735537190083,Columbia St & W 9 St,40.6769993,-74.00647134
April,3395.0,234,911.9401709401709,Henry St & W 9 St,40.6763744,-74.00324957
April,3396.0,846,787.2482269503546,Clinton St & 4 Place,40.6783563,-74.00014502
April,3397.0,709,884.4471086036672,Court St & Nelson St,40.6763947,-73.99869893
April,3398.0,1089,1306.127640036731,Smith St & 9 St,40.67469570000001,-73.99785768
April,3399.0,530,850.1377358490566,7 St & 3 Ave,40.67260298150126,-73.98983001708984
April,3400.0,1391,1067.3393242271748,E 110 St & Madison Ave,40.796153499999996,-73.94782145
April,3401.0,317,901.7350157728706,2 Ave & 9 St,40.6724811,-73.99331394
April,3402.0,2202,779.9613987284287,Court St & State St,40.6902375,-73.99203074
April,3403.0,695,1222.959712230216,4 Ave & 9 St,40.6705135,-73.98876585
April,3404.0,626,797.2252396166134,7 St & 5 Ave,40.670492200000005,-73.98541675
April,3405.0,575,709.4173913043478,5 St & 6 Ave,40.670483600000004,-73.98208968
April,3407.0,899,864.2591768631813,Union St & Nevins St,40.67909799721684,-73.98765474557877
April,3408.0,1477,749.396750169262,Congress St & Clinton St,40.6881529,-73.99520919
April,3409.0,3122,813.5458039718129,Bergen St & Smith St,40.686744299999994,-73.99063168
April,3410.0,896,1182.924107142857,Dean St & Hoyt St,40.686444200000004,-73.98759104
April,3411.0,1196,934.88127090301,Bond St & Bergen St,40.6849668,-73.98620772
April,3412.0,1000,1403.829,Pacific St & Nevins St,40.6853761,-73.98302136
April,3413.0,943,774.373276776246,Wyckoff St & 3 Ave,40.6827549,-73.98258555
April,3414.0,1365,1037.1875457875458,Bergen St & Flatbush Ave,40.680944723477296,-73.97567331790923
April,3415.0,885,921.1627118644068,Prospect Pl & 6 Ave,40.6793307,-73.97519523
April,3416.0,1958,812.4489274770174,7 Ave & Park Pl,40.67761470000001,-73.97324283
April,3417.0,1272,1156.4182389937107,Baltic St & 5 Ave,40.6795766,-73.97854971
April,3418.0,1949,921.2950230887635,Plaza St West & Flatbush Ave,40.675020700000005,-73.97111473
April,3419.0,966,777.8643892339544,Douglass St & 4 Ave,40.67927879999999,-73.98154004
April,3420.0,1226,780.7659053833605,Douglass St & 3 Ave,40.6802133,-73.98432695
April,3422.0,967,853.6670113753878,Columbia St & Degraw St,40.6859296,-74.00242364
April,3423.0,3267,1791.4918885827976,West Drive & Prospect Park West,40.6610633719006,-73.97945255041121
April,3424.0,599,1012.0567612687813,E 106 St & Lexington Ave,40.791976,-73.945993
April,3425.0,1155,709.9454545454546,2 Ave & E 104 St,40.789210499999996,-73.94370784
April,3427.0,5527,932.4649900488511,Lafayette St & Jersey St,40.72430527250332,-73.99600982666016
April,3429.0,3499,1134.9942840811661,Hanson Pl & Ashland Pl,40.68506807308177,-73.97790759801863
April,3430.0,1244,634.250803858521,Richardson St & N Henry St,40.71907891179564,-73.94223690032959
April,3432.0,39,1229.051282051282,NYCBS Depot - GOW,40.66906013501107,-73.99463653564453
April,3434.0,1434,1013.0746164574616,W 88 St & West End Ave,40.790254173304184,-73.97718340158461
April,3435.0,6824,1004.1774618991793,Grand St & Elizabeth St,40.718821999999996,-73.99596
April,3437.0,1302,1347.9831029185868,Riverside Dr & W 91 St,40.793134809866636,-73.97700369358063
April,3440.0,2995,1306.8053422370617,Fulton St & Adams St,40.692418292578466,-73.98949474096298
April,3441.0,359,818.008356545961,10 Hudson Yards,40.752957,-74.00264
April,3443.0,5726,838.4210618232623,W 52 St & 6 Ave,40.76132983124814,-73.97982001304626
April,3449.0,564,1921.0691489361702,Eckford St & Engert Ave,40.72146256229816,-73.94800901412964
April,3452.0,1017,1184.5054080629302,Bayard St & Leonard St,40.71915571696044,-73.94885390996933
April,3453.0,1335,922.5947565543071,Devoe St & Lorimer St,40.71335226222875,-73.9491033554077
April,3454.0,852,1917.1115023474179,Leonard St & Maujer St,40.71036854235229,-73.94705951213838
April,3456.0,334,1028.7065868263473,Jackson St & Leonard St,40.716380319735606,-73.94821286201476
April,3457.0,2015,928.7057071960297,E 58 St & Madison Ave,40.763025942805186,-73.97209525108337
April,3458.0,4098,952.4214250854075,W 55 St & 6 Ave,40.76309387270797,-73.97835016250609
April,3459.0,3107,835.4538139684583,E 53 St & 3 Ave,40.75763227739443,-73.9693057537079
April,3461.0,3274,926.031154551008,Murray St & Greenwich St,40.71485150526252,-74.01122331619263
April,3463.0,3767,708.1884788956729,E 16 St & Irving Pl,40.735367055605394,-73.98797392845155
April,3466.0,3166,965.4292482627922,W 45 St & 6 Ave -,40.75668720603179,-73.98257732391356
April,3467.0,4398,1594.7726239199635,W Broadway & Spring Street,40.72494672359416,-74.00165855884552
April,3469.0,781,1457.3892445582587,India St & West St,40.73181401720966,-73.95995020866394
April,3472.0,3904,1332.1301229508197,W 15 St & 10 Ave,40.742753828659026,-74.00747358798982
April,3477.0,344,1977.6918604651162,39 St & 2 Ave - Citi Bike HQ at Industry City,40.65539977447831,-74.0106278657913
April,3478.0,506,2675.7687747035575,2 Ave & 36 St - Citi Bike HQ at Industry City,40.65708866668485,-74.00870203971863
April,3486.0,2281,1434.2972380534852,Schermerhorn St & Bond St,40.68841742754083,-73.98451656103134
April,3490.0,568,1205.4154929577464,E 116 St & 2 Ave,40.796879,-73.93726099999999
April,3491.0,786,802.0648854961833,E 118 St & 1 Ave,40.797470000000004,-73.93504
April,3492.0,380,868.0131578947369,E 118 St & Park Ave,40.8005385,-73.9419949
April,3493.0,681,754.7004405286343,E 118 St & 3 Ave,40.799139000000004,-73.9389152
April,3494.0,698,739.7636103151863,E 115 St & Lexington Ave,40.797911,-73.9423
April,3495.0,578,900.5190311418685,E 114 St & 1 Ave,40.79456629999999,-73.9362541
April,3496.0,1150,732.5026086956522,1 Ave & E 110 St,40.7923272,-73.9383
April,3497.0,1387,908.0223503965393,Pleasant Ave & E 116 St,40.794987899999995,-73.9333349
April,3498.0,601,4784.096505823627,Pleasant Ave & E 120 St,40.7974772,-73.9311847
April,3499.0,441,1147.1632653061224,2 Ave & E 122 St,40.8006721,-73.9349
April,3500.0,528,1188.7973484848485,E 115 St & Madison Ave,40.7989445,-73.944846
April,3501.0,608,652.2401315789474,E 118 St & Madison Ave,40.801486600000004,-73.9442507
April,3502.0,814,835.1523341523341,Lexington Ave & E 111 St,40.79541210000001,-73.9441232
April,3503.0,420,948.3928571428571,Madison Ave & E 120 St,40.80295,-73.942954
April,3504.0,542,653.1660516605166,E 123 St & Lexington Ave,40.802926299999996,-73.9379
April,3505.0,359,5519.662952646239,Lexington Ave & E 127 St,40.805726,-73.936322
April,3506.0,375,804.2906666666667,Lexington Ave & E 120 St,40.8013066,-73.93981670000001
April,3507.0,2531,1257.4243382062425,Park Ave & E 124 St,40.8045555,-73.93968609999999
April,3508.0,1353,991.0339985218034,St Nicholas Ave & Manhattan Ave,40.809725,-73.953149
April,3509.0,852,2945.099765258216,Lenox Ave & W 115 St,40.8011939,-73.9500739
April,3510.0,776,1124.735824742268,Adam Clayton Powell Blvd & W 123 St,40.8078316,-73.949373
April,3511.0,604,1717.8344370860927,Adam Clayton Powell Blvd & W 115 St,40.802535,-73.9532423
April,3512.0,130,5333.415384615385,27 Ave & 4 St,40.7747175,-73.93378940000001
April,3513.0,307,958.2931596091205,21 St & Hoyt Ave S,40.774645,-73.92370600000001
April,3514.0,538,1173.1096654275093,Astoria Park S & Shore Blvd,40.7767,-73.927631
April,3515.0,481,540.8503118503119,24 Ave & 26 St,40.774591,-73.918544
April,3516.0,504,827.6369047619048,31 St & Astoria Blvd,40.76991760000001,-73.91840570000001
April,3517.0,291,761.786941580756,31 St & Hoyt Ave N,40.771152799999996,-73.9170074
April,3518.0,1344,2150.2566964285716,Lenox Ave & W 126 St,40.808442,-73.94520870000001
April,3520.0,582,3899.6082474226805,Adam Clayton Powell Blvd & W 118 St,40.804372,-73.951475
April,3521.0,2721,1353.7070929805218,Lenox Ave & W 111 St,40.7987859,-73.9523
April,3522.0,343,976.9737609329446,37 St & 24 Ave,40.7701477,-73.9120938
April,3523.0,388,706.0180412371134,24 Ave & 29 St,40.7729,-73.91614200000001
April,3524.0,502,892.2649402390439,19 St & 24 Ave,40.777455200000006,-73.9225403
April,3525.0,215,763.646511627907,23 Ave & 27 St,40.776165,-73.9153175
April,3526.0,1580,691.1803797468355,31 St & 23 Ave,40.7747878,-73.91255509999999
April,3527.0,440,1340.1477272727273,5 Ave & E 126 St,40.806979999999996,-73.94174699999999
April,3528.0,398,831.1130653266332,Steinway St & 23 Ave,40.771393700000004,-73.9077436
April,3529.0,1220,1970.004918032787,Lenox Ave & W 130 St,40.8107922,-73.9430681
April,3530.0,285,694.4,Crescent St & Ditmars Blvd,40.7787185,-73.9145645
April,3531.0,563,4370.408525754885,Frederick Douglass Blvd & W 129 St,40.8125511,-73.9492286
April,3532.0,547,908.5338208409506,Ditmars Blvd & 19 St,40.78145,-73.9183302
April,3533.0,1018,2416.647347740668,St. Nicholas Ave & W 126 St,40.8114323,-73.95187759999999
April,3534.0,1711,1139.187609585038,Frederick Douglass Blvd & W 117 St,40.805159,-73.95469200000001
April,3535.0,778,1408.1221079691518,Mt Morris Park W & W 120 St,40.804038,-73.945925
April,3536.0,1112,1109.1888489208634,W 116 St & Broadway,40.8082,-73.9641
April,3537.0,1230,942.339837398374,Carlton Ave & Dean St,40.68097410000001,-73.97100970000001
April,3538.0,1566,1124.8435504469987,W 110 St & Amsterdam Ave,40.802692,-73.96295
April,3539.0,1201,931.1065778517901,W 116 St & Amsterdam Ave,40.8067581,-73.9607082
April,3540.0,763,1242.1009174311926,Morningside Ave & W 123 St,40.81,-73.9551508
April,3541.0,802,4594.486284289277,Amsterdam Ave & W 125 St,40.813358,-73.956461
April,3542.0,768,1758.1354166666667,Amsterdam Ave & W 119 St,40.8086249,-73.9596214
April,3543.0,330,1041.551515151515,Morningside Dr & Amsterdam Ave,40.81028506306003,-73.95736455917357
April,3544.0,859,733.6437718277066,Underhill Ave & Pacific St,40.6804836,-73.9646795
April,3545.0,522,1108.955938697318,Broadway & W 122 St,40.8120562,-73.9612547
April,3546.0,330,1125.448484848485,Pacific St & Classon Ave,40.67919439999999,-73.95879029999999
April,3547.0,1471,1562.7036029911624,Broadway & Moylan Pl,40.8143256,-73.9590255
April,3549.0,1174,735.6763202725724,Grand Ave & Bergen St,40.678045000000004,-73.962408
April,3551.0,393,1056.8880407124682,3 Ave & E 112 St,40.795508,-73.94160600000001
April,3552.0,1008,2070.063492063492,W 113 St & Broadway,40.805973,-73.964928
April,3553.0,1585,1109.0681388012617,Frederick Douglass Blvd & W 112 St,40.801694,-73.957145
April,3554.0,426,2505.2957746478874,Vernon Blvd & 41 Rd,40.7552433,-73.94856779999999
April,3555.0,847,876.9693034238488,28 St & 41 Ave,40.751047,-73.93796999999999
April,3556.0,530,899.1018867924528,24 St & 41 Ave,40.752708500000004,-73.9397405
April,3557.0,302,926.0264900662252,40 Ave & 9 St,40.75742,-73.945133
April,3558.0,1450,980.096551724138,Bergen St & Vanderbilt Ave,40.6794388,-73.96804379999999
April,3559.0,132,1070.189393939394,21 St & 38 Ave,40.7576314,-73.9391224
April,3560.0,428,886.9415887850467,28 St & 38 Ave,40.754876,-73.934326
April,3561.0,335,1232.9283582089552,37 Ave & 35 St,40.7531106,-73.9279917
April,3562.0,1261,1305.3275178429817,Classon Ave & St Marks Ave,40.676519799999994,-73.9596082
April,3563.0,274,752.6496350364963,28 St & 36 Ave,40.757186,-73.93271899999999
April,3564.0,131,789.4961832061068,21 St & 36 Ave,40.760185299999996,-73.9362726
April,3565.0,467,1349.4218415417558,36 Ave & 10 St,40.7614376,-73.9411265
April,3566.0,279,841.7168458781362,Crescent St & 35 Ave,40.7596276,-73.93214549999999
April,3567.0,146,834.4041095890411,11 St & 35 Ave,40.76274420000001,-73.9391141
April,3568.0,414,699.5483091787439,34 St & 35 Ave,40.756933200000006,-73.92622309999999
April,3569.0,837,1196.200716845878,Franklin Ave & St Marks Ave,40.6758324,-73.95616770000001
April,3570.0,514,779.1575875486382,35 Ave & 37 St,40.7557327,-73.92366109999999
April,3571.0,1076,2106.870817843866,Bedford Ave & Bergen St,40.676368,-73.95291800000001
April,3572.0,1177,717.945624468989,34 Ave & 38 St,40.756913,-73.921631
April,3573.0,387,795.0335917312661,35 St & 34 Ave,40.7580583,-73.92427509999999
April,3574.0,887,1517.2739571589627,Prospect Pl & Underhill Ave,40.6769694,-73.96579
April,3575.0,386,786.759067357513,Crescent St & 34 Ave,40.76108,-73.930562
April,3576.0,1695,768.2631268436578,Park Pl & Vanderbilt Ave,40.6767,-73.969024
April,3577.0,306,824.1928104575163,34 Ave & 21 St,40.762813799999996,-73.9342862
April,3578.0,625,871.4,Park Pl & Franklin Ave,40.67418060000001,-73.95649470000001
April,3579.0,800,2143.24625,Sterling Pl & Bedford Ave,40.672695000000004,-73.954131
April,3580.0,1089,1298.0339761248852,St Johns Pl & Washington Ave,40.6737236,-73.9631611
April,3581.0,1297,762.9753276792599,Underhill Ave & Lincoln Pl,40.674012299999994,-73.9671457
April,3582.0,512,696.5625,Lincoln Pl & Classon Ave,40.672168299999996,-73.9609
April,3583.0,1496,1663.7767379679144,Eastern Pkwy & Washington Ave,40.6716493,-73.9631145
April,3584.0,1799,3713.3585325180657,Eastern Pkwy & Franklin Ave,40.670776700000005,-73.9576801
April,3585.0,357,1012.0588235294117,Union St & Bedford Ave,40.6691783,-73.9554162
April,3586.0,196,707.9285714285714,34 Ave & 13 St,40.763875299999995,-73.9364848
April,3587.0,462,2507.0108225108224,Carroll St & Washington Ave,40.6686744,-73.9618148
April,3588.0,564,1088.9468085106382,Vernon Blvd & 10 St,40.7671863,-73.9373554
April,3589.0,428,821.1752336448598,Broadway & 12 St,40.7668,-73.93477740000002
April,3590.0,201,3530.9402985074626,Carroll St & Franklin Ave,40.6679411,-73.9588
April,3591.0,574,641.8554006968641,21 St & 31 Dr,40.7659,-73.930819
April,3592.0,599,713.4707846410685,Crescent St & Broadway,40.7633589,-73.92864709999999
April,3593.0,1154,661.6490467937608,31 St & Broadway,40.761584,-73.925921
April,3595.0,429,659.1841491841492,35 St & Broadway,40.760339,-73.9222427
April,3596.0,132,1863.6136363636363,Sullivan Pl & Bedford Ave,40.6642406,-73.9574686
April,3597.0,666,961.5285285285286,43 St & Broadway,40.7577284,-73.9166368
April,3598.0,353,1214.7932011331445,Newton Rd & 44 St,40.7595701,-73.91426779999999
April,3599.0,1432,2589.483240223464,Franklin Ave & Empire Blvd,40.663140000000006,-73.96056949999999
April,3601.0,213,6065.286384976525,Sterling St & Bedford Ave,40.6627059,-73.9569115
April,3602.0,679,768.4005891016201,31 Ave & 34 St,40.763154,-73.920827
April,3603.0,502,776.5498007968127,31 Ave & 30 St,40.7647,-73.9240312
April,3604.0,465,1430.7010752688172,Rogers Ave & Sterling St,40.6630619,-73.95387459999999
April,3605.0,422,704.8009478672985,31 Ave & Crescent St,40.765834600000005,-73.9265474
April,3606.0,487,985.0821355236139,49 Ave & 21 St,40.74252,-73.948852
April,3607.0,346,755.0115606936416,31 Ave & 14 St,40.7682,-73.9322662
April,3608.0,356,955.9241573033707,5 St & 51 Ave,40.7423737,-73.9566
April,3609.0,540,870.4925925925926,Vernon Blvd & 31 Ave,40.7692475,-73.93545040000001
April,3610.0,489,925.4458077709611,Vernon Blvd & 30 Rd,40.770845,-73.93417099999999
April,3611.0,849,898.2355712603062,Vernon Blvd & 47 Rd,40.7449067,-73.9534573
April,3612.0,280,720.1357142857142,30 Ave & 21 St,40.77037429999999,-73.9286078
April,3613.0,691,986.3502170767005,Center Blvd & 48 Ave,40.745038,-73.957539
April,3614.0,424,702.3490566037735,Crescent St & 30 Ave,40.768692,-73.9249574
April,3615.0,1017,1360.8495575221239,44 Dr & 21 St,40.748000000000005,-73.94609270000001
April,3616.0,568,646.0052816901408,Steinway St & 28 Ave,40.7656251,-73.9136695
April,3617.0,455,2190.9142857142856,28 Ave & 35 St,40.7671,-73.9169858
April,3618.0,749,886.0267022696929,27 St & Hunter St,40.7485,-73.941275
April,3619.0,572,603.2814685314685,Newtown Ave & 23 St,40.7713615,-73.9246145
April,3620.0,296,1035.7601351351352,11 St & 43 Ave,40.7519071,-73.94791190000001
April,3621.0,196,814.6224489795918,27 Ave & 9 St,40.7739825,-73.93091340000001
April,3622.0,450,2248.8133333333335,E 128 St & Madison Ave,40.807559999999995,-73.93918199999999
April,3623.0,753,2885.253652058433,W 120 St & Claremont Ave,40.8109494,-73.9634
April,3628.0,1293,2500.355761794277,Lenox Ave & W 117 St,40.8025566,-73.9490782
April,3629.0,619,3266.951534733441,Adam Clayton Powell Blvd & W 126 St,40.809495347779475,-73.94776493310928
April,3630.0,1145,1039.4794759825327,Frederick Douglass Blvd & W 115 St,40.8038654,-73.95593079999999
April,3631.0,224,1077.1517857142858,Crown St & Bedford Ave,40.666563000000004,-73.95674100000001
April,3637.0,1489,786.6695768972464,Fulton St & Waverly Ave,40.68323865460341,-73.96599590778352
April,3641.0,7696,827.4694646569646,Broadway & W 25 St,40.74286877312112,-73.98918628692627
April,3646.0,405,760.441975308642,35 Ave & 10 St,40.763154819103725,-73.93985509872438
April,3647.0,223,1239.6771300448431,48 Ave & 30 Pl,40.74128309355993,-73.93725872039794
April,3648.0,1561,1110.8199871877002,Flushing Ave & Vanderbilt Ave,40.69795031569544,-73.97077560424805
April,3649.0,489,1189.8486707566462,W 129 St & Convent Ave,40.81439443791581,-73.95324736833571
April,3654.0,323,1564.953560371517,31 St & Northern Blvd,40.75186951421875,-73.93349289894103
April,3656.0,4743,777.2121020451191,E 2 St & Avenue A,40.72307749068673,-73.98583620786667
April,3658.0,3794,1032.3550342646283,W 18 St & 9 Ave,40.7435337324616,-74.00367558002472
April,3660.0,8200,721.0720731707318,W 16 St & 8 Ave,40.74102150900266,-74.001384973526
April,3661.0,156,910.6858974358975,Montgomery St & Franklin Ave,40.666439306870814,-73.96055638790129
April,3662.0,580,798.4672413793104,31 Ave & Steinway St,40.76129389728909,-73.916916847229
April,3664.0,5141,795.641898463334,North Moore St & Greenwich St,40.72019521437465,-74.0103006362915
April,3668.0,1544,644.3037564766839,Leonard St & Nassau Ave,40.7239567849954,-73.94984364509583
April,3671.0,1587,1166.7372400756144,E 81 St & 2 Ave,40.77477944895728,-73.95427465438844
April,3673.0,881,1026.4267877412033,Dean St & Franklin Ave,40.67759206937376,-73.95563721656801
April,3674.0,3505,1734.0513552068473,Jay St & York St,40.70140317257725,-73.98672670125961
April,3675.0,916,822.6561135371179,3 Ave & E 95 St,40.784596798848916,-73.94968539476396
April,3676.0,883,1995.6715741789355,Van Brunt St & Van Dyke St,40.675832943912894,-74.01472628116608
April,3680.0,3165,769.3690363349131,E 43 St & 5 Ave,40.754120810779256,-73.98025184869765
April,3684.0,3331,982.0741519063345,W 12 St & W 4 St,40.73756121181137,-74.00398269295692
April,3686.0,6114,965.6993784756297,Gansevoort St & Hudson St,40.73944820130404,-74.00507032871245
April,3687.0,5746,821.9455273233553,E 33 St & 1 Ave,40.74322681432173,-73.97449783980845
April,3689.0,1028,1211.2821011673152,W 104 St & Amsterdam Ave,40.79904139288298,-73.96649479866028
April,3690.0,2108,1001.8742884250474,Park Pl & Church St,40.71334184275907,-74.00935515761375
April,3691.0,342,547.1578947368421,28 Ave & 44 St,40.76408932350689,-73.9106512069702
April,3692.0,399,1095.671679197995,5 St & Market St,40.6999974843885,-73.97440128028394
April,3693.0,995,1080.2874371859295,N 11 St & Kent Ave,40.72248188638219,-73.95921930670737
April,3697.0,2972,957.6453566621803,W 64 St & Thelonious Monk Circle,40.77515953434235,-73.98918695747851
April,3699.0,2169,1025.6643614568925,W 50 St & 9 Ave,40.76360467795863,-73.98917958140373
April,3701.0,2879,1126.620354289684,Cliff St & Fulton St,40.70831794366396,-74.0050408244133
April,3704.0,159,1187.4842767295597,47 Ave & Skillman Ave,40.7437524099784,-73.94176483154297
April,3707.0,5708,776.2997547302032,Lexington Ave & E 26 St,40.741459000000006,-73.983293
April,3708.0,4918,783.3523790158602,W 13 St & 5 Ave,40.735445,-73.99431
April,3709.0,4482,687.3500669344043,W 15 St & 6 Ave,40.73804614248277,-73.99642959237099
April,3711.0,6709,827.8321657475034,E 13 St & Avenue A,40.72966729392978,-73.98067966103555
April,3712.0,2585,827.9117988394585,W 35 St & Dyer Ave,40.754691750226016,-73.9974018931389
April,3714.0,762,4022.9816272965877,Division Av & Hooper St,40.70684203101325,-73.9544353965357
April,3715.0,2452,1342.3723491027733,Driggs Ave & N 9 St,40.71816969454208,-73.95520135760306
April,3716.0,146,704.6095890410959,40 Ave & Crescent St,40.7535992020056,-73.9379560947418
April,3718.0,3946,741.656867714141,E 11 St & Avenue B,40.727464206923926,-73.97950418293476
April,3720.0,306,765.8464052287582,Wyckoff St & Bond St,40.68461653897949,-73.98721285164356
April,3721.0,1377,889.3079157588961,31 St & Newtown Ave,40.7675487799971,-73.92093345522879
April,3723.0,1104,1282.6286231884058,Cadman Plaza E & Johnson St,40.69531727766904,-73.99015724658966
April,3724.0,4437,1431.1011945007888,7 Ave & Central Park South,40.7667405590595,-73.9790689945221
April,3725.0,2413,881.7513468711148,2 Ave & E 72 St,40.7687620293096,-73.95840793848038
April,3726.0,881,1469.7014755959137,Center Blvd & 51 Ave,40.74336608027021,-73.95960688591003
April,3727.0,490,785.4448979591837,Frost St & Meeker Ave,40.71766197083994,-73.94880026578903
April,3728.0,991,1420.1200807265388,Pierrepont St & Monroe Pl,40.69535693320225,-73.99344027042389
April,3733.0,2048,938.35302734375,Avenue C & E 18 St,40.730563000000004,-73.973984
April,3734.0,1641,917.3552711761122,E 58 St &  1 Ave (NW Corner),40.759125,-73.96265799999999
April,3737.0,2681,1478.964565460649,Stanton St & Norfolk St,40.720746999999996,-73.986274
April,3745.0,503,1041.831013916501,36 Ave & 31 St,40.75651272984955,-73.92957486212252
April,3746.0,4242,1089.603253182461,6 Ave & Broome St,40.72430832160217,-74.00473035871983
April,3747.0,2641,998.6028019689511,E 84 St & 3 Ave,40.777553742988864,-73.95512759685515
April,3749.0,2399,769.22842851188,Lexington Ave & E 36 St,40.747573958954796,-73.97880077362059
April,3755.0,255,1329.3960784313726,DeKalb Ave & Franklin Ave,40.69064807082943,-73.95746178925037
April,3756.0,239,1310.062761506276,White St & Moore St,40.704508000000004,-73.9351
April,3757.0,104,5198.153846153846,Stagg St & Morgan Ave,40.710681,-73.93372
April,3758.0,232,1543.8146551724137,George St & Wilson Ave,40.702996999999996,-73.92997
April,3759.0,190,1416.4842105263158,Irving Ave & Jefferson St,40.70538,-73.92535
April,3760.0,231,5032.943722943723,Willoughby Ave & Wyckoff Ave,40.705614000000004,-73.92153
April,3761.0,336,1415.404761904762,Cedar St & Myrtle Ave,40.697842,-73.926241
April,3762.0,88,682.1136363636364,3 Ave & Carroll St,40.677027,-73.9865
April,3763.0,266,1309.3233082706768,Wyckoff Av & Jefferson St,40.707165,-73.923711
April,3764.0,8,763.25,Bushwick Ave & McKibbin St,40.705517,-73.93936
April,3766.0,41,4671.512195121952,Sharon St & Olive St,40.715353,-73.93856
April,3767.0,147,891.2857142857143,Powers St & Olive St,40.713229999999996,-73.93894
April,3769.0,13,1020.8461538461538,White St & Johnson Ave,40.707174,-73.93581
April,3771.0,188,974.8510638297872,McKibbin St & Bogart St,40.706237,-73.933871
April,3772.0,40,893.55,Devoe St & Morgan Ave,40.713811,-73.93515
April,3775.0,69,1667.3478260869565,Suydam St & Knickerbocker Ave,40.702013,-73.923769
April,3776.0,146,1116.2054794520548,Central Ave & Starr Street,40.700003,-73.92834
August,72.0,5748,1117.7872303409881,W 52 St & 11 Ave,40.76727216,-73.99392888
August,79.0,3050,880.2573770491804,Franklin St & W Broadway,40.71911552,-74.00666661
August,82.0,1657,767.5866022933011,St James Pl & Pearl St,40.71117416,-74.00016545
August,83.0,2066,1049.6592449177153,Atlantic Ave & Fort Greene Pl,40.68382604,-73.97632328
August,116.0,8239,768.2699356718048,W 17 St & 8 Ave,40.74177603,-74.00149746
August,119.0,682,704.4237536656891,Park Ave & St Edwards St,40.69608941,-73.97803415
August,120.0,1278,786.7996870109546,Lexington Ave & Classon Ave,40.68676793,-73.95928168
August,127.0,6945,819.3768178545716,Barrow St & Hudson St,40.73172428,-74.00674436
August,128.0,8016,867.5542664670659,MacDougal St & Prince St,40.72710258,-74.00297088
August,143.0,2397,747.3842302878599,Clinton St & Joralemon St,40.69239502,-73.99337909
August,144.0,1162,1622.5981067125645,Nassau St & Navy St,40.69839895,-73.98068914
August,146.0,3568,866.4338565022422,Hudson St & Reade St,40.71625008,-74.0091059
August,150.0,4329,779.1145761145762,E 2 St & Avenue C,40.720873600000004,-73.98085795
August,151.0,10813,1113.411819106631,Cleveland Pl & Spring St,40.72210378668603,-73.99724900722505
August,157.0,2162,954.9491211840888,Henry St & Atlantic Ave,40.69089272,-73.99612349
August,161.0,5981,873.8476843337235,LaGuardia Pl & W 3 St,40.72917025,-73.99810231
August,164.0,4305,874.1718931475029,E 47 St & 2 Ave,40.75323098,-73.97032517
August,167.0,5749,903.5578361454166,E 39 St & 3 Ave,40.7489006,-73.97604882
August,168.0,9446,731.6542451831463,W 18 St & 6 Ave,40.73971301,-73.99456405
August,173.0,7581,840.7228597810315,Broadway & W 49 St,40.76068327096592,-73.98452728986742
August,174.0,3695,1147.1418132611636,E 25 St & 1 Ave,40.7381765,-73.97738662
August,195.0,5358,943.0711086226204,Liberty St & Broadway,40.70905623,-74.01043382
August,212.0,6325,939.7052964426878,W 16 St & The High Line,40.74334935,-74.00681753
August,216.0,1112,1098.9631294964029,Columbia Heights & Cranberry St,40.70037867,-73.99548059
August,217.0,5281,1497.39746260178,Old Fulton St,40.70277159,-73.99383605
August,223.0,6100,823.0224590163934,W 13 St & 7 Ave,40.73781509,-73.99994661
August,224.0,3162,1178.983238456673,Spruce St & Nassau St,40.71146364,-74.00552427
August,228.0,3319,972.1349804157879,E 48 St & 3 Ave,40.7546011026,-73.971878855
August,229.0,8519,695.7618265054584,Great Jones St,40.72743423,-73.99379025
August,236.0,6699,857.9056575608299,St Marks Pl & 2 Ave,40.7284186,-73.98713956
August,237.0,5157,946.2966841186736,E 11 St & 2 Ave,40.73047309,-73.98672378
August,238.0,4160,925.4653846153847,Bank St & Washington St,40.7361967,-74.00859207
August,239.0,2638,648.2539802880971,Willoughby St & Fleet St,40.69196566,-73.9813018
August,241.0,2003,775.7333999001497,DeKalb Ave & S Portland Ave,40.68981035,-73.97493121
August,242.0,1418,940.7038081805359,Carlton Ave & Flushing Ave,40.697787,-73.973736
August,243.0,1500,978.686,Fulton St & Rockwell Pl,40.68841,-73.979458
August,244.0,1915,704.557180156658,Willoughby Ave & Hall St,40.69196035,-73.96536851
August,245.0,1198,1162.0984974958265,Myrtle Ave & St Edwards St,40.69327018,-73.97703874
August,247.0,4727,864.8284324095621,Perry St & Bleecker St,40.73535398,-74.00483091
August,248.0,1337,1007.5646970830217,Laight St & Hudson St,40.72185379,-74.00771779
August,249.0,1999,1527.1405702851425,Harrison St & Hudson St,40.71870987,-74.0090009
August,250.0,2503,780.3060327606872,Lafayette St & Jersey St,40.72456089,-73.99565293
August,251.0,6951,888.7259387138541,Mott St & Prince St,40.72317958,-73.99480012
August,252.0,4925,807.1683248730965,MacDougal St & Washington Sq,40.73226398,-73.99852205
August,254.0,5446,751.8176643408005,W 11 St & 6 Ave,40.73532427,-73.99800419
August,257.0,5788,830.2935383552177,Lispenard St & Broadway,40.71939226,-74.00247214
August,258.0,1890,822.357671957672,DeKalb Ave & Vanderbilt Ave,40.68940747,-73.96885458
August,259.0,4405,1360.7366628830873,South St & Whitehall St,40.70122128,-74.01234218
August,260.0,1755,1106.4444444444443,Broad St & Bridge St,40.70365182,-74.01167797
August,261.0,1686,989.9217081850534,Johnson St & Gold St,40.69474881,-73.98362464
August,262.0,1477,702.855788761002,Washington Park,40.6917823,-73.97372990000001
August,264.0,2967,1024.4580384226492,Maiden Ln & Pearl St,40.70706456,-74.00731853
August,265.0,5681,860.1429325822919,Stanton St & Chrystie St,40.72229346,-73.99147535
August,266.0,3081,1040.0253164556962,Avenue D & E 8 St,40.72368361,-73.97574813
August,267.0,3324,836.0658844765343,Broadway & W 36 St,40.75097711,-73.98765428
August,268.0,5691,918.7901950448075,Howard St & Centre St,40.71910537,-73.99973337
August,270.0,2400,697.8254166666667,Adelphi St & Myrtle Ave,40.69308257,-73.97178913
August,274.0,2181,1540.87116001834,Lafayette Ave & Fort Greene Pl,40.68691865,-73.976682
August,275.0,1152,764.8255208333334,Washington Ave & Greene Ave,40.68650065,-73.96563307
August,276.0,2372,887.4945193929174,Duane St & Greenwich St,40.71748752,-74.0104554
August,278.0,1168,1018.8801369863014,Concord St & Bridge St,40.69766564,-73.98476437
August,279.0,4712,1192.776740237691,Peck Slip & Front St,40.707873,-74.00166999999999
August,280.0,4021,773.6791842825168,E 10 St & 5 Ave,40.73331967,-73.99510132
August,281.0,10082,1606.4333465582226,Grand Army Plaza & Central Park S,40.764397100000004,-73.97371465
August,282.0,2873,1040.1674208144796,Kent Ave & S 11 St,40.7076449441757,-73.96841526031494
August,284.0,9361,929.9732934515544,Greenwich Ave & 8 Ave,40.7390169121,-74.0026376103
August,285.0,12622,735.4774996038662,Broadway & E 14 St,40.73454567,-73.99074142
August,289.0,1310,947.4496183206107,Monroe St & Classon Ave,40.684568299999995,-73.95881081
August,291.0,2294,868.1346992153444,Madison St & Montgomery St,40.713126,-73.984844
August,293.0,11247,928.997866097626,Lafayette St & E 8 St,40.73020660529954,-73.99102628231049
August,295.0,3367,791.7386397386398,Pike St & E Broadway,40.71406667,-73.99293911
August,296.0,4488,903.3950534759358,Division St & Bowery,40.71413089,-73.99704679999999
August,297.0,6700,970.0877611940299,E 15 St & 3 Ave,40.734232,-73.986923
August,298.0,1918,873.7935349322211,3 Ave & Schermerhorn St,40.68683208,-73.9796772
August,301.0,6609,846.3513390830685,E 2 St & Avenue B,40.72217444,-73.98368779
August,302.0,2636,1262.77655538695,Avenue D & E 3 St,40.72082834,-73.97793172
August,303.0,5769,1407.0468018720749,Mercer St & Spring St,40.72362738,-73.99949601
August,304.0,5873,1260.0759407457858,Broadway & Battery Pl,40.70463334,-74.01361706
August,305.0,5188,1074.2835389360062,E 58 St & 3 Ave,40.76095756,-73.96724467
August,307.0,7240,774.7653314917127,Canal St & Rutgers St,40.71427487,-73.98990025
August,308.0,2741,799.952207223641,St James Pl & Oliver St,40.71307916,-73.99851193
August,309.0,4535,1031.9338478500551,Murray St & West St,40.7149787,-74.013012
August,310.0,2059,804.3229723166586,State St & Smith St,40.68926942,-73.98912867
August,311.0,5856,888.0274931693989,Norfolk St & Broome St,40.7172274,-73.98802084
August,312.0,7541,799.8232329929717,Allen St & Stanton St,40.722055,-73.989111
August,313.0,1998,944.6001001001001,Washington Ave & Park Ave,40.69610226,-73.96751037
August,314.0,2290,774.1200873362445,Cadman Plaza West & Montague St,40.69383,-73.990539
August,315.0,6984,1286.7184994272623,South St & Gouverneur Ln,40.70355377,-74.00670227
August,316.0,3378,939.8700414446419,Fulton St & William St,40.70955958,-74.00653609
August,317.0,5851,762.2708938642967,E 6 St & Avenue B,40.72453734,-73.98185424
August,319.0,5492,1026.9047705753824,Fulton St & Broadway,40.711065999999995,-74.009447
August,320.0,2922,806.735112936345,Leonard St & Church St,40.717571,-74.005549
August,321.0,2914,1141.836993822924,Cadman Plaza E & Red Cross Pl,40.69991755,-73.98971773
August,323.0,2941,1354.968038082285,Lawrence St & Willoughby St,40.69236178,-73.98631746
August,324.0,2475,724.1543434343434,DeKalb Ave & Hudson Ave,40.689888,-73.981013
August,325.0,4604,1175.1316246741962,E 19 St & 3 Ave,40.73624527,-73.98473765
August,326.0,6656,785.6290564903846,E 11 St & 1 Ave,40.72953837,-73.98426726
August,327.0,9195,1147.905165851006,Vesey Pl & River Terrace,40.715337899999994,-74.01658354
August,328.0,4543,877.3940127668941,Watts St & Greenwich St,40.72405549,-74.00965965
August,330.0,2895,902.2822107081174,Reade St & Broadway,40.71450451,-74.00562789
August,331.0,3011,940.0478246429758,Pike St & Monroe St,40.71173107,-73.99193043
August,332.0,3058,1396.5958142576847,Cherry St,40.71219906,-73.97948148
August,334.0,6238,764.9437319653736,W 20 St & 7 Ave,40.74238787,-73.99726235
August,335.0,3825,787.1354248366013,Washington Pl & Broadway,40.72903917,-73.99404649
August,336.0,5650,1099.8769911504426,Sullivan St & Washington Sq,40.73047747,-73.99906065
August,337.0,3436,1588.4842840512224,Old Slip & Front St,40.703799200000006,-74.00838676
August,339.0,2109,1238.9559032716927,Avenue D & E 12 St,40.72580614,-73.97422494
August,340.0,2474,818.3561034761519,Madison St & Clinton St,40.71269042,-73.98776323
August,341.0,2039,995.7842079450711,Stanton St & Mangin St,40.71782143,-73.97628939
August,342.0,2253,850.7838437638704,Columbia St & Rivington St,40.71739973,-73.98016555
August,343.0,974,1024.4969199178645,Clinton Ave & Flushing Ave,40.69794,-73.96986848
August,344.0,1472,831.0455163043479,Monroe St & Bedford Ave,40.6851443,-73.95380904
August,346.0,4619,935.7783069928556,Bank St & Hudson St,40.73652889,-74.00618026
August,347.0,7679,903.7805703867691,Greenwich St & W Houston St,40.728846000000004,-74.00859100000001
August,349.0,3656,901.5467724288841,Rivington St & Ridge St,40.71850211,-73.98329859
August,350.0,5810,837.1111876075731,Clinton St & Grand St,40.71559509,-73.9870295
August,351.0,3765,1127.660823373174,Front St & Maiden Ln,40.70530954,-74.00612572
August,353.0,1385,1096.2036101083033,S Portland Ave & Hanson Pl,40.68539567,-73.97431458
August,354.0,1866,1086.02679528403,Emerson Pl & Myrtle Ave,40.69363137,-73.96223558
August,355.0,4925,892.2166497461928,Bayard St & Baxter St,40.71602118,-73.99974372
August,356.0,1782,929.7789001122335,Bialystoker Pl & Delancey St,40.71622644,-73.98261206
August,358.0,12251,873.0404864908987,Christopher St & Greenwich St,40.73291553,-74.00711384
August,359.0,8498,836.7630030595434,E 47 St & Park Ave,40.75510267,-73.97498696
August,360.0,2919,997.6091127098322,William St & Pine St,40.70717936,-74.00887308
August,361.0,5936,813.4503032345013,Allen St & Hester St,40.71605866,-73.99190759
August,362.0,3334,853.5749850029994,Broadway & W 37 St,40.75172632,-73.98753523
August,363.0,5266,957.8397265476642,West Thames St,40.70834698,-74.01713445
August,364.0,1701,1100.5473251028807,Lafayette Ave & Classon Ave,40.68900443,-73.96023854
August,366.0,202,2271.420792079208,Clinton Ave & Myrtle Ave,40.693261,-73.968896
August,368.0,9740,810.3494866529774,Carmine St & 6 Ave,40.73038599,-74.00214988
August,369.0,3625,813.16,Washington Pl & 6 Ave,40.73224119,-74.00026394
August,372.0,867,860.5086505190311,Franklin Ave & Myrtle Ave,40.694546087246025,-73.95801365375519
August,373.0,945,975.5407407407407,Willoughby Ave & Walworth St,40.69331716,-73.95381995
August,376.0,2246,1271.286286731968,John St & William St,40.70862144,-74.00722156
August,377.0,6288,907.8077290076336,6 Ave & Canal St,40.72243797,-74.00566443
August,379.0,8536,788.3324742268042,W 31 St & 7 Ave,40.749156,-73.9916
August,380.0,7408,865.383909287257,W 4 St & 7 Ave S,40.73401143,-74.00293877
August,382.0,6999,725.7263894842121,University Pl & E 14 St,40.73492695,-73.99200509
August,383.0,5515,774.9782411604715,Greenwich Ave & Charles St,40.735238,-74.000271
August,385.0,3536,905.1179298642534,E 55 St & 2 Ave,40.75797322,-73.96603308
August,386.0,3346,1163.89061566049,Centre St & Worth St,40.71494807,-74.00234482
August,387.0,8777,1390.1739774410391,Centre St & Chambers St,40.71273266,-74.0046073
August,388.0,5773,848.2288238350944,W 26 St & 10 Ave,40.749717753,-74.002950346
August,389.0,2990,851.0016722408027,Broadway & Berry St,40.71044554,-73.96525063
August,390.0,2199,850.6762164620282,Duffield St & Willoughby St,40.69221589,-73.9842844
August,391.0,2879,696.0746787078847,Clark St & Henry St,40.69760127,-73.99344559
August,392.0,3086,1455.9666234607907,Jay St & Tech Pl,40.695065,-73.987167
August,393.0,3323,837.698164309359,E 5 St & Avenue C,40.72299208,-73.97995466
August,394.0,5260,836.5794676806083,E 9 St & Avenue C,40.72521311,-73.97768752
August,396.0,884,866.3846153846154,Lefferts Pl & Franklin Ave,40.680342423,-73.9557689392
August,397.0,983,3133.737538148525,Fulton St & Clermont Ave,40.68415748,-73.96922273
August,398.0,3594,1269.4958263772955,Atlantic Ave & Furman St,40.69165183,-73.99997859999999
August,399.0,2201,701.4084507042254,Lafayette Ave & St James Pl,40.68851534,-73.9647628
August,400.0,1262,809.9936608557845,Pitt St & Stanton St,40.71926081,-73.98178024
August,401.0,6188,847.6858435681966,Allen St & Rivington St,40.72019576,-73.98997825
August,402.0,11536,884.5201976421637,Broadway & E 22 St,40.740343200000005,-73.98955109
August,403.0,6231,931.318407960199,E 2 St & 2 Ave,40.72502876,-73.99069656
August,405.0,8856,1072.861224028907,Washington St & Gansevoort St,40.739323,-74.008119
August,406.0,2427,875.2167284713638,Hicks St & Montague St,40.69512845,-73.99595065
August,408.0,2274,907.5351802990325,Market St & Cherry St,40.71076228,-73.99400398
August,410.0,4528,925.6212455830389,Suffolk St & Stanton St,40.72066442,-73.98517977
August,411.0,3523,894.0621629293216,E 6 St & Avenue D,40.72228087,-73.97668709
August,412.0,6112,1262.0854057591623,Forsyth St & Canal St,40.715815500000005,-73.99422366
August,415.0,2788,1102.8518651362983,Pearl St & Hanover Square,40.7047177,-74.00926027
August,416.0,1484,775.0512129380054,Cumberland St & Lafayette Ave,40.68753406,-73.97265183
August,417.0,5170,1086.2860735009672,Barclay St & Church St,40.71291224,-74.01020234
August,418.0,1719,1120.347294938918,Front St & Gold St,40.70224,-73.982578
August,419.0,1262,702.8161648177496,Carlton Ave & Park Ave,40.69580705,-73.97355569
August,420.0,927,753.5145631067961,Clermont Ave & Lafayette Ave,40.68764484,-73.96968902
August,421.0,1052,682.9714828897338,Clermont Ave & Park Ave,40.69573398,-73.97129668
August,422.0,4943,997.1086384786566,W 59 St & 10 Ave,40.770513,-73.988038
August,423.0,3707,1067.9190720258969,W 54 St & 9 Ave,40.76584941,-73.98690506
August,426.0,13875,1218.4598198198198,West St & Chambers St,40.71754834,-74.01322069
August,427.0,3802,1441.59863229879,Bus Slip & State St,40.701907,-74.013942
August,432.0,7736,733.3771975180972,E 7 St & Avenue A,40.72621788,-73.98379855
August,434.0,5817,1267.9358776001375,9 Ave & W 18 St,40.74317449,-74.00366443
August,435.0,12732,721.0703738611373,W 21 St & 6 Ave,40.74173969,-73.99415556
August,436.0,827,5686.355501813785,Hancock St & Bedford Ave,40.68216564,-73.95399026
August,437.0,1851,2368.7676931388437,Macon St & Nostrand Ave,40.6809833854,-73.9500479759
August,438.0,7418,841.3041251011055,St Marks Pl & 1 Ave,40.72779126,-73.98564945
August,439.0,6727,1009.1456815816857,E 4 St & 2 Ave,40.726280700000004,-73.98978041
August,440.0,3751,1018.5385230605172,E 45 St & 3 Ave,40.75255434,-73.97282625
August,442.0,6649,782.2931267859828,W 27 St & 7 Ave,40.746646999999996,-73.993915
August,443.0,800,1136.8775,Bedford Ave & S 9 St,40.70853074,-73.96408963
August,445.0,7233,911.4866583713535,E 10 St & Avenue A,40.72740794,-73.98142006
August,446.0,8041,755.6417112299465,W 24 St & 7 Ave,40.74487634,-73.99529885
August,447.0,5990,973.0297161936561,8 Ave & W 52 St,40.76370739,-73.9851615
August,448.0,5623,909.2046950026676,W 37 St & 10 Ave,40.75660359,-73.9979009
August,450.0,6006,836.3404928404929,W 49 St & 8 Ave,40.76227205,-73.98788205
August,453.0,7102,1302.3000563221628,W 22 St & 8 Ave,40.74475148,-73.99915362
August,454.0,4380,928.5977168949772,E 51 St & 1 Ave,40.75455731,-73.96592976
August,455.0,4161,1559.0658495553953,1 Ave & E 44 St,40.75001986,-73.96905301
August,456.0,5384,976.5525631500743,E 53 St & Madison Ave,40.75971079999999,-73.97402311
August,458.0,8330,961.2327731092437,11 Ave & W 27 St,40.751396,-74.00522600000001
August,459.0,11463,941.4650615022246,W 20 St & 11 Ave,40.746745000000004,-74.007756
August,460.0,5083,1239.5870548888452,S 4 St & Wythe Ave,40.71285887,-73.96590294
August,461.0,6542,779.3310914093549,E 20 St & 2 Ave,40.73587678,-73.98205027
August,462.0,7633,893.5045198480283,W 22 St & 10 Ave,40.74691959,-74.00451887
August,464.0,1459,2438.2378341329677,E 56 St & 3 Ave,40.75934501,-73.96759673
August,465.0,8912,814.4989901256732,Broadway & W 41 St,40.75513557,-73.98658032
August,466.0,6501,750.1149053991694,W 25 St & 6 Ave,40.74395411,-73.99144871
August,467.0,2577,670.9798214978657,Dean St & 4 Ave,40.68312489,-73.97895137
August,468.0,8137,903.120560403097,Broadway & W 56 St,40.7652654,-73.98192338
August,469.0,4944,852.1727346278317,Broadway & W 53 St,40.76344058,-73.98268129
August,470.0,5588,734.474946313529,W 20 St & 8 Ave,40.74345335,-74.00004031
August,471.0,2718,986.7457689477557,Grand St & Havemeyer St,40.71286844,-73.95698119
August,472.0,7565,786.3319233311302,E 32 St & Park Ave,40.745712100000006,-73.98194829
August,473.0,3840,1567.4158854166667,Rivington St & Chrystie St,40.72110063,-73.99192540000001
August,474.0,6425,812.4286381322958,5 Ave & E 29 St,40.7451677,-73.98683077
August,476.0,6078,822.006581112208,E 31 St & 3 Ave,40.74394314,-73.97966069
August,477.0,9840,907.4842479674796,W 41 St & 8 Ave,40.75640548,-73.9900262
August,478.0,6849,983.1070229230545,11 Ave & W 41 St,40.76030096,-73.99884222
August,479.0,7119,940.5656693355809,9 Ave & W 45 St,40.76019252,-73.9912551
August,480.0,4653,916.2450032237266,W 53 St & 10 Ave,40.76669671,-73.99061728
August,481.0,3354,988.4564698867024,S 3 St & Bedford Ave,40.71260486,-73.96264403
August,482.0,8160,724.4503676470588,W 15 St & 7 Ave,40.73935542,-73.99931783
August,483.0,4491,745.3814295257181,E 12 St & 3 Ave,40.73223272,-73.98889957
August,484.0,5058,857.1079478054567,W 44 St & 5 Ave,40.75500254,-73.98014437
August,485.0,3886,799.2743180648482,W 37 St & 5 Ave,40.75038009,-73.98338988
August,486.0,7392,783.150974025974,Broadway & W 29 St,40.7462009,-73.98855723
August,487.0,5604,892.8040685224839,E 20 St & FDR Drive,40.73314259,-73.97573881
August,489.0,8008,823.2717282717283,10 Ave & W 28 St,40.75066386,-74.00176802
August,490.0,9717,1219.6446434084594,8 Ave & W 33 St,40.751551,-73.993934
August,491.0,11459,1014.7777292957501,E 24 St & Park Ave S,40.74096374,-73.98602213
August,492.0,8648,1041.6717160037003,W 33 St & 7 Ave,40.75019995,-73.99093085
August,493.0,5394,1202.1446051167964,W 45 St & 6 Ave,40.7568001,-73.98291153
August,494.0,7286,809.9596486412297,W 26 St & 8 Ave,40.74734825,-73.99723551
August,495.0,5513,876.4694358788319,W 47 St & 10 Ave,40.76269882,-73.99301222
August,496.0,7530,779.3946879150067,E 16 St & 5 Ave,40.73726186,-73.99238967
August,497.0,14345,805.5341930986407,E 17 St & Broadway,40.73704984,-73.99009296
August,499.0,11964,1142.929037111334,Broadway & W 60 St,40.76915505,-73.98191841
August,500.0,4484,904.0323371989296,Broadway & W 51 St,40.76228826,-73.98336183
August,501.0,7916,1515.0282971197576,FDR Drive & E 35 St,40.744219,-73.97121214
August,502.0,3666,743.07010365521,Henry St & Grand St,40.714215,-73.981346
August,503.0,6208,784.6375644329897,E 20 St & Park Ave,40.73827428,-73.98751968
August,504.0,8854,757.7983962051051,1 Ave & E 16 St,40.73221853,-73.98165557
August,505.0,9899,830.1587028992827,6 Ave & W 33 St,40.74901271,-73.98848395
August,507.0,6849,809.598773543583,E 25 St & 2 Ave,40.73912601,-73.97973776
August,508.0,5240,1223.637213740458,W 46 St & 11 Ave,40.76341379,-73.99667444
August,509.0,6368,815.1315954773869,9 Ave & W 22 St,40.7454973,-74.00197139
August,513.0,4043,953.5523126391294,W 56 St & 10 Ave,40.768254,-73.988639
August,514.0,13435,1341.6657982880536,12 Ave & W 40 St,40.76087502,-74.00277668
August,515.0,5221,876.9917640298793,W 43 St & 10 Ave,40.76009437,-73.99461843
August,516.0,2466,1029.0405515004056,E 47 St & 1 Ave,40.75206862,-73.96784384
August,517.0,6324,819.8325426944972,Pershing Square South,40.751581,-73.97791
August,518.0,6736,873.0356294536817,E 39 St & 2 Ave,40.74780373,-73.97344190000001
August,519.0,16564,865.5673146582951,Pershing Square North,40.751872999999996,-73.97770600000001
August,520.0,4423,1100.4399728690935,W 52 St & 5 Ave,40.75992262,-73.97648516
August,522.0,4515,1069.7537098560354,E 51 St & Lexington Ave,40.75714758,-73.97207836
August,523.0,9162,1026.1756166775813,W 38 St & 8 Ave,40.75466591,-73.99138152
August,525.0,9445,1190.579142403388,W 34 St & 11 Ave,40.75594159,-74.0021163
August,526.0,5823,915.4430705821742,E 33 St & 5 Ave,40.74765947,-73.98490707
August,528.0,6269,1256.3054713670442,2 Ave & E 31 St,40.74290902,-73.97706058
August,529.0,5502,943.6979280261723,W 42 St & 8 Ave,40.75756989999999,-73.99098507
August,530.0,6060,1080.2019801980198,11 Ave & W 59 St,40.771496710544405,-73.99046033620834
August,531.0,6358,1012.156023906889,Forsyth St & Broome St,40.71893904,-73.99266288
August,532.0,5850,1304.3873504273504,S 5 Pl & S 5 St,40.710451,-73.960876
August,533.0,5044,833.056304520222,Broadway & W 38 St,40.75299641,-73.98721619
August,534.0,2595,1109.397302504817,Water - Whitehall Plaza,40.70255065,-74.0127234
August,536.0,4352,768.0854779411765,1 Ave & E 30 St,40.74144387,-73.97536082
August,539.0,5798,854.1260779579166,Metropolitan Ave & Bedford Ave,40.71534825,-73.96024116
August,540.0,4545,841.5298129812982,Lexington Ave & E 29 St,40.74311555376486,-73.98215353488922
August,545.0,6064,793.4666886543536,E 23 St & 1 Ave,40.736502,-73.97809472
August,546.0,5335,841.5516401124648,E 30 St & Park Ave S,40.74444921,-73.98303529
August,2000.0,4741,1550.5768825142375,Front St & Washington St,40.70255088,-73.98940236
August,2002.0,4635,1167.4049622437972,Wythe Ave & Metropolitan Ave,40.716887,-73.96319799999999
August,2003.0,6289,730.2116393703292,1 Ave & E 18 St,40.73381219196632,-73.9805442094803
August,2005.0,147,1118.7210884353742,Railroad Ave & Kay Ave,40.70531194,-73.97100056
August,2006.0,9593,1864.7884916084645,Central Park S & 6 Ave,40.76590936,-73.97634151
August,2008.0,6979,1252.188995558103,Little West St & 1 Pl,40.70569254,-74.01677685
August,2009.0,2885,845.8284228769497,Catherine St & Monroe St,40.71117444,-73.99682619
August,2012.0,4528,826.0384275618375,E 27 St & 1 Ave,40.739445,-73.97680600000001
August,2017.0,2473,927.3085321471897,E 43 St & 2 Ave,40.75022392,-73.97121414
August,2021.0,5484,1017.9026258205689,W 45 St & 8 Ave,40.75929124,-73.98859651
August,2022.0,1343,1224.1906180193596,E 60 St & York Ave,40.759107,-73.959223
August,3002.0,11033,1156.672346596574,South End Ave & Liberty St,40.711512,-74.01575600000001
August,3016.0,6111,1252.713794796269,Kent Ave & N 7 St,40.72036775298455,-73.96165072917937
August,3041.0,942,1465.523354564756,Kingston Ave & Herkimer St,40.67890679,-73.94142771
August,3042.0,1016,3999.7864173228345,Fulton St & Utica Ave,40.6794268,-73.92989109999999
August,3043.0,615,1064.1447154471546,Lewis Ave & Decatur St,40.6814598,-73.934903
August,3044.0,345,3029.8463768115944,Albany Ave & Fulton St,40.6800105,-73.938475
August,3046.0,734,1393.2929155313352,Marcus Garvey Blvd & Macon St,40.682601,-73.938037
August,3047.0,947,2992.639915522703,Halsey St & Tompkins Ave,40.682368700000005,-73.944118
August,3048.0,569,3421.18453427065,Putnam Ave & Nostrand Ave,40.684020000000004,-73.94977
August,3049.0,1113,854.5426774483378,Cambridge Pl & Gates Ave,40.68488,-73.96304
August,3050.0,800,2299.4975,Putnam Ave & Throop Ave,40.6851532,-73.94111
August,3052.0,1200,1682.9541666666667,Lewis Ave & Madison St,40.686312,-73.935775
August,3053.0,774,1087.0568475452196,Marcy Ave & Lafayette Ave,40.6900815,-73.94791500000001
August,3054.0,800,1201.26875,Greene Ave & Throop Ave,40.6894932,-73.942061
August,3055.0,942,990.4861995753715,Greene Ave & Nostrand Ave,40.68833370000001,-73.950916
August,3056.0,854,1487.3957845433256,Kosciuszko St & Nostrand Ave,40.69072549,-73.95133465
August,3057.0,1105,921.531221719457,Kosciuszko St & Tompkins Ave,40.69128258,-73.9452416
August,3058.0,902,4664.228381374723,Lewis Ave & Kosciuszko St,40.69237074,-73.93705428
August,3059.0,657,7055.022831050228,Pulaski St & Marcus Garvey Blvd,40.693398200000004,-73.939877
August,3060.0,815,1259.5496932515337,Willoughby Ave & Tompkins Ave,40.69425403,-73.94626915
August,3061.0,416,2302.3701923076924,Throop Ave & Myrtle Ave,40.69622937,-73.94371094
August,3062.0,909,1720.5291529152914,Myrtle Ave & Marcy Ave,40.69539817,-73.94954908
August,3063.0,631,1023.3708399366086,Nostrand Ave & Myrtle Ave,40.69527008,-73.95238108
August,3064.0,1662,3802.6859205776173,Myrtle Ave & Lewis Ave,40.69681963,-73.93756926
August,3065.0,839,865.3373063170441,Union Ave & Wallabout St,40.70029511,-73.95032283
August,3066.0,639,879.7746478873239,Tompkins Ave & Hopkins St,40.69957608,-73.94708417
August,3067.0,1118,1520.0742397137747,Broadway & Whipple St,40.7016657,-73.9437303
August,3068.0,769,1003.5071521456437,Humboldt St & Varet St,40.7031724,-73.940636
August,3069.0,861,771.5656213704995,Lorimer St & Broadway,40.70411791,-73.94818595
August,3070.0,888,1039.7713963963963,McKibbin St & Manhattan Ave,40.70510918,-73.94407279
August,3071.0,1033,776.1442400774444,Boerum St & Broadway,40.70538077,-73.94976519
August,3072.0,748,993.0842245989305,Leonard St & Boerum St,40.70583339,-73.94644578
August,3074.0,1581,2483.549019607843,Montrose Ave & Bushwick Ave,40.70767788,-73.94016171
August,3075.0,503,875.8846918489065,Division Ave & Marcy Ave,40.70708701,-73.95796783
August,3076.0,1979,904.199595755432,Scholes St & Manhattan Ave,40.70870368,-73.9448625
August,3077.0,1968,1178.3998983739837,Stagg St & Union Ave,40.70877084,-73.95095259
August,3078.0,2394,930.0718462823726,Broadway & Roebling St,40.70924826276157,-73.96063148975372
August,3080.0,1723,942.6285548461985,S 4 St & Rodney St,40.709340000000005,-73.95608
August,3081.0,1807,1420.5379081350304,Graham Ave & Grand St,40.711863,-73.944024
August,3082.0,2364,940.0896785109983,Hope St & Union Ave,40.71167351,-73.95141312
August,3083.0,985,939.1766497461929,Bushwick Ave & Powers St,40.71247661,-73.94100005
August,3085.0,2296,836.4612369337979,Roebling St & N 4 St,40.714690000000004,-73.95739
August,3086.0,2688,783.0665922619048,Graham Ave & Conselyea St,40.715143,-73.944507
August,3087.0,2376,773.4360269360269,Metropolitan Ave & Meeker Ave,40.71413311,-73.95234386
August,3088.0,947,1357.506863780359,Union Ave & Jackson St,40.7160751,-73.95202900000001
August,3092.0,3217,751.5324836804476,Berry St & N 8 St,40.7190095,-73.95852515
August,3093.0,5341,766.4308181988391,N 6 St & Bedford Ave,40.71745169,-73.95850939
August,3094.0,1471,716.3324269204622,Graham Ave & Withers St,40.7169811,-73.94485918
August,3095.0,933,967.4072883172562,Graham Ave & Herbert St,40.71929301,-73.94500379
August,3096.0,2771,804.056297365572,Union Ave & N 12 St,40.71924,-73.95241999999999
August,3100.0,1856,822.5964439655172,Nassau Ave & Newell St,40.724812564400175,-73.94752621650694
August,3101.0,2636,951.4798937784522,N 12 St & Bedford Ave,40.72079821,-73.95484712
August,3102.0,1769,710.583380440927,Driggs Ave & Lorimer St,40.72179134,-73.95041540000001
August,3105.0,1023,944.624633431085,N 15 St & Wythe Ave,40.724055,-73.955736
August,3106.0,1837,765.71692977681,Driggs Ave & N Henry St,40.72325,-73.94308000000001
August,3107.0,3260,868.0273006134969,Bedford Ave & Nassau Ave,40.72311651,-73.95212324
August,3108.0,2810,874.5758007117438,Nassau Ave & Russell St,40.725570000000005,-73.94434
August,3109.0,1534,806.5541069100391,Banker St & Meserole Ave,40.72606,-73.95621
August,3110.0,2717,729.9057784320942,Meserole Ave & Manhattan Ave,40.72708584,-73.95299117
August,3112.0,3468,886.131199538639,Milton St & Franklin St,40.72906,-73.95779
August,3113.0,2666,808.076144036009,Greenpoint Ave & Manhattan Ave,40.730259999999994,-73.95394
August,3115.0,2118,770.6841359773371,India St & Manhattan Ave,40.73232194,-73.9550858
August,3116.0,2193,911.2544459644323,Huron St & Franklin St,40.732659999999996,-73.95826
August,3117.0,2107,1241.173706691979,Franklin St & Dupont St,40.735640000000004,-73.95866
August,3118.0,2491,811.9433962264151,McGuinness Blvd & Eagle St,40.73555,-73.95284000000001
August,3119.0,3030,587.5660066006601,Vernon Blvd & 50 Ave,40.74232744,-73.95411749
August,3121.0,945,1038.7100529100528,Jackson Ave & 46 Rd,40.74524768,-73.94733276
August,3122.0,505,980.0514851485149,48 Ave & 5 St,40.74436328706688,-73.95587325096129
August,3123.0,536,1308.1828358208954,31 St & Thomson Ave,40.74469738,-73.93540375
August,3124.0,2165,748.3602771362587,46 Ave & 5 St,40.74731,-73.95451
August,3125.0,1453,1413.970406056435,45 Rd & 11 St,40.74708586,-73.94977234
August,3126.0,1952,890.7453893442623,44 Dr & Jackson Ave,40.74718234,-73.9432635
August,3127.0,720,1045.8180555555555,9 St & 44 Rd,40.74966,-73.9521
August,3128.0,453,1006.2671081677704,21 St & 43 Ave,40.75052534,-73.94594845
August,3129.0,3234,1042.352504638219,Queens Plaza North & Crescent St,40.75110165,-73.94073717
August,3130.0,1106,871.1663652802894,21 St & Queens Plaza North,40.75325964,-73.94335788
August,3131.0,1323,843.2169312169312,E 68 St & 3 Ave,40.76712840349542,-73.96224617958069
August,3132.0,2871,1094.3291536050156,E 59 St & Madison Ave,40.76350532,-73.97109243
August,3134.0,2394,898.3847117794486,3 Ave & E 62 St,40.76312584,-73.96526895
August,3135.0,1694,933.3589138134593,E 75 St & 3 Ave,40.77112927,-73.95772297
August,3136.0,3106,1687.9175788795878,5 Ave & E 63 St,40.766368,-73.971518
August,3137.0,7154,1650.6632653061224,5 Ave & E 73 St,40.77282817,-73.96685276
August,3139.0,3298,1332.5946027895695,E 72 St & Park Ave,40.77118287540658,-73.96409422159195
August,3140.0,5076,893.2482269503546,1 Ave & E 78 St,40.77140426,-73.9535166
August,3141.0,6654,941.3065825067629,1 Ave & E 68 St,40.76500525,-73.95818491
August,3142.0,5393,979.4249953643612,1 Ave & E 62 St,40.761227399999996,-73.96094022
August,3143.0,5259,1794.2838942764783,5 Ave & E 78 St,40.77632142182271,-73.96427392959596
August,3145.0,1736,1101.272465437788,E 84 St & Park Ave,40.77862688,-73.95772073
August,3146.0,1670,925.3994011976048,E 81 St & 3 Ave,40.77573034,-73.9567526
August,3148.0,2745,878.2775956284153,E 84 St & 1 Ave,40.77565541,-73.95068615
August,3150.0,1278,1570.6744913928012,E 85 St & York Ave,40.77536905,-73.94803392
August,3151.0,2275,871.4114285714286,E 81 St & York Ave,40.7728384,-73.94989233
August,3152.0,863,969.7589803012746,3 Ave & E 71 St,40.76873687,-73.96119945
August,3154.0,1832,844.5021834061135,E 77 St & 3 Ave,40.77314236,-73.95856158
August,3155.0,2873,999.844413505047,Lexington Ave & E 63 St,40.76440023,-73.96648977
August,3156.0,3398,914.9746909947028,E 72 St & York Ave,40.76663814,-73.95348296
August,3157.0,1230,1019.3373983739838,East End Ave & E 86 St,40.77518615,-73.94446054
August,3158.0,5202,1022.7835447904652,W 63 St & Broadway,40.77163851,-73.98261428
August,3159.0,4072,1280.5164538310412,W 67 St & Broadway,40.77492513,-73.98266566
August,3160.0,4653,1435.8609499247798,Central Park West & W 76 St,40.77896784,-73.97374737
August,3161.0,3119,990.883616543764,W 76 St & Columbus Ave,40.7801839724239,-73.97728532552719
August,3162.0,2200,1026.1495454545454,W 78 St & Broadway,40.78339981,-73.98093133
August,3163.0,7164,1754.4845058626465,Central Park West & W 68 St,40.7734066,-73.97782542
August,3164.0,6567,913.9843155169789,Columbus Ave & W 72 St,40.7770575,-73.97898475
August,3165.0,8439,1398.3458940632777,Central Park West & W 72 St,40.77579376683666,-73.97620573639871
August,3166.0,3578,1297.9921743991056,Riverside Dr & W 72 St,40.780577990103346,-73.98562431335448
August,3167.0,5159,851.3917425857725,Amsterdam Ave & W 73 St,40.779668090073116,-73.98093044757842
August,3168.0,5443,1547.5313246371486,Central Park West & W 85 St,40.78472675,-73.96961715
August,3169.0,2435,1425.05954825462,Riverside Dr & W 82 St,40.78720869,-73.98128127
August,3170.0,2539,898.2579755809373,W 84 St & Columbus Ave,40.78499979,-73.97283406
August,3171.0,3325,917.0415037593986,Amsterdam Ave & W 82 St,40.78524672,-73.97667321
August,3172.0,2274,824.4819700967458,W 74 St & Columbus Ave,40.7785669,-73.97754961
August,3173.0,3673,1468.4710046283692,Riverside Blvd & W 67 St,40.777507027547976,-73.98888587951659
August,3175.0,4153,900.532867806405,W 70 St & Amsterdam Ave,40.77748046,-73.98288594
August,3177.0,2967,1131.1641388608023,W 84 St & Broadway,40.7867947,-73.977112
August,3178.0,2556,1492.2758215962442,Riverside Dr & W 78 St,40.78414472,-73.98362492
August,3179.0,756,846.3624338624338,Park Ave & Marcus Garvey Blvd,40.698617,-73.941342
August,3182.0,2272,2181.198063380282,Yankee Ferry Terminal,40.686931,-74.016966
August,3221.0,567,1232.1975308641975,47 Ave & 31 St,40.743,-73.93561
August,3226.0,3224,1235.3591811414392,W 82 St & Central Park West,40.78275,-73.97137
August,3231.0,1338,1173.3415545590433,E 67 St & Park Ave,40.76780080148132,-73.96592080593109
August,3232.0,3565,805.9870967741936,Bond St & Fulton St,40.68962188790333,-73.98304268717766
August,3233.0,7137,1005.6796973518285,E 48 St & 5 Ave,40.75724567911726,-73.97805914282799
August,3235.0,3623,819.3019597019045,E 41 St & Madison Ave,40.752165280621966,-73.97992193698882
August,3236.0,4708,892.4352166525064,W 42 St & Dyer Ave,40.75898481399634,-73.99379968643187
August,3241.0,1048,1058.4990458015268,Monroe St & Tompkins Ave,40.686203000000006,-73.944694
August,3242.0,1831,768.0480611687602,Schermerhorn St & Court St,40.69102925677968,-73.99183362722397
August,3243.0,1383,1057.420101229212,E 58 St & 1 Ave (NE Corner),40.75892386377695,-73.96226227283478
August,3244.0,4441,744.123845980635,University Pl & E 8 St,40.73143724085228,-73.99490341544151
August,3245.0,1,1639.0,NYCBS DEPOT - DELANCEY,40.71644423134479,-73.9823305606842
August,3249.0,999,2027.6786786786786,Verona Pl & Fulton St,40.680356084043396,-73.94767910242079
